sector,entityid,entityName,plantid,balancing_authority_code,balancing.authority.name,status,latitude,longitude,gen_cap,operating.year.month
ipp-non-chp,59469,"Mt. Home Solar 1, LLC",59695,IPCO,Idaho Power Company,OP,43.129,-115.752,20,2017-03
ipp-non-chp,59755,"Murphy Flat Power, LLC",60009,IPCO,Idaho Power Company,OP,43.213,-116.439,20,2017-04
ipp-non-chp,59756,"Orchard Ranch Solar, LLC",60010,IPCO,Idaho Power Company,OP,43.467,-116.285,20,2017-03
ipp-non-chp,59757,American Falls Solar LLC,60011,IPCO,Idaho Power Company,OP,42.824,-112.752,20,2017-03
ipp-non-chp,59758,"American Falls Solar II, LLC",60012,IPCO,Idaho Power Company,OP,42.824,-112.752,20,2017-03
ipp-non-chp,59806,"Grand View PV Solar Two, LLC",60068,IPCO,Idaho Power Company,OP,42.989614,-116.093431,80,2016-12
ipp-non-chp,61060,Cypress Creek Renewables,60445,IPCO,Idaho Power Company,OP,43.444,-116.333,40,2016-08
ipp-non-chp,60448,Simcoe Solar,60748,IPCO,Idaho Power Company,OP,43.288439,-115.955371,20,2017-03
industrial-non-chp,57449,Borrego Solar Systems Inc,62151,IPCO,Idaho Power Company,OP,42.540968,-114.412523,2,2019-06
ipp-non-chp,60496,Enerparc Inc.,61289,NWMT,NorthWestern Energy (NWMT),OP,45.703779,-109.565219,2,2017-04
ipp-non-chp,60496,Enerparc Inc.,61290,NWMT,NorthWestern Energy (NWMT),OP,45.730113,-107.632624,3,2017-04
ipp-non-chp,60496,Enerparc Inc.,61291,NWMT,NorthWestern Energy (NWMT),OP,46.694488,-112.063623,3,2017-04
ipp-non-chp,60496,Enerparc Inc.,61335,NWMT,NorthWestern Energy (NWMT),OP,46.805739,-112.249048,3,2017-09
ipp-non-chp,60496,Enerparc Inc.,61336,NWMT,NorthWestern Energy (NWMT),OP,47.547466,-111.253974,3,2017-09
ipp-non-chp,60496,Enerparc Inc.,61337,NWMT,NorthWestern Energy (NWMT),OP,46.291439,-108.937935,3,2017-09
ipp-non-chp,17650,Southern Power Co,57243,WACM,Western Area Power Administration - Rocky Mountain Region,OP,36.468078,-104.635659,30.6,2010-12
ipp-non-chp,59400,NRG Solar Roadrunner,57338,EPE,El Paso Electric Company,OP,31.792778,-106.673333,20.2,2011-08
ipp-non-chp,56706,Chevron Technology Ventures,57369,PNM,Public Service Company of New Mexico,OP,36.716944,-105.60944,1,2011-01
electric-utility,59300,PNM Resources,57567,PNM,Public Service Company of New Mexico,OP,35.168957,-106.60005,2,2011-04
electric-utility,59300,PNM Resources,57571,PNM,Public Service Company of New Mexico,OP,34.833136,-106.772413,7,2011-06
electric-utility,59300,PNM Resources,57575,PNM,Public Service Company of New Mexico,OP,32.165833,-107.75056,9,2011-08
electric-utility,59300,PNM Resources,57576,PNM,Public Service Company of New Mexico,OP,35.643333,-105.206667,5,2011-11
electric-utility,59300,PNM Resources,57577,PNM,Public Service Company of New Mexico,OP,32.86571,-105.999775,5,2011-10
ipp-non-chp,56926,"Hatch Solar Energy Center I, LLC",57591,EPE,El Paso Electric Company,OP,32.63,-107.259722,5,2011-06
ipp-non-chp,57055,"SunE SPS1, LLC",57736,SWPP,Southwest Power Pool,OP,32.12743,-103.137825,10,2011-09
ipp-non-chp,57056,"SunE SPS2, LLC",57737,SWPP,Southwest Power Pool,OP,32.183611,-103.183056,10,2011-09
ipp-non-chp,57057,"SunE SPS3, LLC",57738,SWPP,Southwest Power Pool,OP,32.469722,-103.323333,10,2011-11
ipp-non-chp,57059,"SunE SPS4, LLC",57739,SWPP,Southwest Power Pool,OP,32.681944,-103.303611,10.1,2011-12
ipp-non-chp,57058,"SunE SPS5, LLC",57740,SWPP,Southwest Power Pool,OP,32.345556,-104.234722,10.1,2011-12
ipp-non-chp,57361,SunE EPE2 LLC,57985,EPE,El Paso Electric Company,OP,32.251667,-106.913333,12,2012-05
ipp-non-chp,57360,SunE EPE1 LLC,57986,EPE,El Paso Electric Company,OP,32.034383,-106.340986,10,2012-06
ipp-non-chp,57390,Siemens Government Technologies Inc,58010,EPE,El Paso Electric Company,OP,32.395833,-106.47722,4.6,2012-12
ipp-non-chp,57081,"WGL Energy Systems, Inc",58240,PNM,Public Service Company of New Mexico,OP,36.966667,-105.438056,1.3,2012-06
electric-utility,11204,Los Alamos County,58256,PNM,Public Service Company of New Mexico,OP,35.875556,-106.31,1,2012-09
ipp-non-chp,58465,"Green States Energy, Inc.",58479,SWPP,Southwest Power Pool,OP,33.351111,-104.506944,2,2013-06
electric-utility,59300,PNM Resources,58520,PNM,Public Service Company of New Mexico,OP,32.976389,-105.971111,8,2013-12
electric-utility,59300,PNM Resources,58521,PNM,Public Service Company of New Mexico,OP,34.746667,-106.654444,8.4,2013-10
ipp-non-chp,58509,"Affordable Solar Silver City, LLC",58540,PNM,Public Service Company of New Mexico,OP,32.713889,-108.248056,1,2013-06
ipp-non-chp,58465,"Green States Energy, Inc.",58576,SWPP,Southwest Power Pool,OP,33.3,-104.4,2.3,2011-05
ipp-non-chp,57081,"WGL Energy Systems, Inc",58588,PNM,Public Service Company of New Mexico,OP,35.313333,-106.657778,1,2013-11
ipp-non-chp,57081,"WGL Energy Systems, Inc",58589,PNM,Public Service Company of New Mexico,OP,35.264444,-106.667778,1,2013-11
ipp-non-chp,58621,"SSA Solar of NM, LLC",58689,PNM,Public Service Company of New Mexico,OP,36.907778,-105.985278,1.3,2012-10
ipp-non-chp,58681,MSM Solar LLC,58794,PNM,Public Service Company of New Mexico,OP,35.656944,-105.183889,1.9,2014-05
electric-utility,15473,Public Service Co of NM,58899,PNM,Public Service Company of New Mexico,OP,35.001944,-106.637222,0.5,2011-09
ipp-non-chp,17650,Southern Power Co,59010,EPE,El Paso Electric Company,OP,32.57,-107.48,52.2,2014-05
ipp-non-chp,59991,"Caprock Solar 1, LLC",59251,SWPP,Southwest Power Pool,OP,34.982778,-103.378333,25,2016-12
ipp-non-chp,59171,"Suncore Photovoltaics, Inc",59393,PNM,Public Service Company of New Mexico,OP,35.049167,-106.53,2,2013-11
electric-utility,59300,PNM Resources,59558,PNM,Public Service Company of New Mexico,OP,35.283611,-106.812778,6.1,2014-12
electric-utility,17826,"Springer Electric Coop, Inc",59560,PNM,Public Service Company of New Mexico,OP,36.398056,-104.594167,1,2015-05
electric-utility,59300,PNM Resources,59618,PNM,Public Service Company of New Mexico,OP,34.81,-106.52,9.1,2015-01
electric-utility,59300,PNM Resources,59619,PNM,Public Service Company of New Mexico,OP,35.20115,-107.245156,7.6,2015-02
ipp-non-chp,59424,"SSA Solar of NM 4, LLC",59653,PNM,Public Service Company of New Mexico,OP,33.121111,-107.287778,1.9,2015-02
electric-utility,59300,PNM Resources,60195,PNM,Public Service Company of New Mexico,OP,34.986073,-106.736129,10,2015-12
electric-utility,59300,PNM Resources,60196,PNM,Public Service Company of New Mexico,OP,35.587795,-106.060859,9.5,2015-12
electric-utility,59300,PNM Resources,60197,PNM,Public Service Company of New Mexico,OP,35.029719,-106.855498,10.5,2015-12
electric-utility,59300,PNM Resources,60198,PNM,Public Service Company of New Mexico,OP,34.582598,-106.682975,10,2015-12
ipp-non-chp,60046,"TPE Alta Luna, LLC",60258,PNM,Public Service Company of New Mexico,OP,32.572022,-107.486458,28.1,2017-01
electric-utility,5701,El Paso Electric Co,60301,EPE,El Paso Electric Company,OP,32.921261,-106.072411,5,2018-10
ipp-non-chp,60127,"SSA Solar of NM 3, LLC",60341,PNM,Public Service Company of New Mexico,OP,33.1526,-107.249831,1,2015-09
ipp-non-chp,60208,Chaves Solar LLC,60405,SWPP,Southwest Power Pool,OP,33.45,-104.456,70,2016-10
ipp-non-chp,60209,"Roswell Solar, LLC",60406,SWPP,Southwest Power Pool,OP,33.45293,-104.461074,70,2016-08
ipp-non-chp,61724,New Mexico Renewable Development LLC,61165,PNM,Public Service Company of New Mexico,OP,31.86673,-107.587513,1.9,2017-12
ipp-non-chp,61156,"NMRD Data Center, LLC",61556,PNM,Public Service Company of New Mexico,OP,34.831,-106.762,10,2017-12
ipp-non-chp,61156,"NMRD Data Center, LLC",61557,PNM,Public Service Company of New Mexico,OP,35.08,-106.865,10,2018-02
ipp-non-chp,61156,"NMRD Data Center, LLC",61558,PNM,Public Service Company of New Mexico,OP,35.075,-106.865,10,2018-04
ipp-non-chp,60520,SoCore Energy LLC,61662,PNM,Public Service Company of New Mexico,OP,33.610306,-105.747825,3,2018-03
ipp-non-chp,60584,Onyx Asset Services Group,61681,SWPP,Southwest Power Pool,OP,32.978636,-103.371284,5,2017-11
ipp-non-chp,61685,"Syncarpha Eagle Nest I, LLC",62149,PNM,Public Service Company of New Mexico,OP,36.544166,-105.2772,1,2018-11
ipp-non-chp,61724,New Mexico Renewable Development LLC,62191,PNM,Public Service Company of New Mexico,OP,34.783205,-106.051092,2,2018-10
ipp-non-chp,60531,Standard Solar,62406,PNM,Public Service Company of New Mexico,OP,35.52236,-108.778791,8,2018-05
electric-utility,59300,PNM Resources,62467,PNM,Public Service Company of New Mexico,OP,34.741,-106.655,10,2019-03
electric-utility,59300,PNM Resources,62597,PNM,Public Service Company of New Mexico,OP,34.692,-106.688,10,2019-06
ipp-non-chp,62655,RC Energy AA LLC,62756,PNM,Public Service Company of New Mexico,OP,35.152721,-106.547222,1,2011-01
ipp-non-chp,62842,"Lightsource Renewable Energy Asset Management, LLC",62994,PNM,Public Service Company of New Mexico,OP,35.24,-107.946,2.4,2019-12
ipp-non-chp,62842,"Lightsource Renewable Energy Asset Management, LLC",62995,PNM,Public Service Company of New Mexico,OP,35.14,-107.821,4.5,2019-12
electric-utility,59300,PNM Resources,63081,PNM,Public Service Company of New Mexico,OP,35.63457,-105.1784,10,2019-09
electric-utility,59300,PNM Resources,63082,PNM,Public Service Company of New Mexico,OP,35.63471,-105.1732,10,2019-10
ipp-non-chp,62905,"Syncarpha Taos I, LLC",63123,PNM,Public Service Company of New Mexico,OP,36.371326,-105.660152,3.1,2020-05
ipp-non-chp,62904,"Syncarpha El Rito I, LLC",63124,PNM,Public Service Company of New Mexico,OP,36.331724,-106.190105,1.6,2019-12
ipp-non-chp,62906,"Syncarpha Questa I, LLC",63125,PNM,Public Service Company of New Mexico,OP,36.810668,-105.588421,1.6,2020-01
electric-utility,59300,PNM Resources,63184,PNM,Public Service Company of New Mexico,OP,35.10476,-106.48237,10,2019-12
ipp-non-chp,61724,New Mexico Renewable Development LLC,63391,PNM,Public Service Company of New Mexico,OP,35.179889,-106.806583,1.2,2019-09
ipp-non-chp,63213,Jemez Cuba LLC,63477,PNM,Public Service Company of New Mexico,OP,36.091143,-106.040879,2.4,2020-02
ipp-non-chp,61156,"NMRD Data Center, LLC",63579,PNM,Public Service Company of New Mexico,OP,35.016,-106.098,50,2019-12
ipp-non-chp,61156,"NMRD Data Center, LLC",63860,PNM,Public Service Company of New Mexico,OP,35.354,-106.858,55,2020-07
ipp-non-chp,50131,Enel Stillwater LLC,50765,NEVP,Nevada Power Company,OP,39.547537,-118.555613,22,2012-04
industrial-non-chp,55710,Barrick Goldstrike Mines Inc,56500,NEVP,Nevada Power Company,OP,39.5603,-119.5108,1,2007-12
commercial-non-chp,56203,Solar Star NAFB LLC,56568,NEVP,Nevada Power Company,OP,36.260278,-115.0544,14,2007-10
ipp-non-chp,57036,Copper Mountain 1 LLC,56944,CISO,California Independent System Operator,OP,35.7881,-114.9933,10,2008-12
ipp-non-chp,57036,Copper Mountain 1 LLC,57205,CISO,California Independent System Operator,OP,35.7814,-114.9933,48,2010-06
ipp-non-chp,58720,Enbridge,57442,NEVP,Nevada Power Company,OP,35.793056,-115.35028,52,2012-05
ipp-non-chp,59745,First Solar Asset Management,57859,NEVP,Nevada Power Company,OP,36.52995,-114.770308,250,2016-12
ipp-non-chp,57391,"Copper Mountain Solar 2, LLC",58017,CISO,California Independent System Operator,OP,35.786389,-114.962778,154,2012-10
ipp-non-chp,58245,"Patua Acquisition Company, LLC",58319,NEVP,Nevada Power Company,OP,39.585833,-119.073056,10.6,2017-07
ipp-non-chp,58464,City of Las Vegas,58477,NEVP,Nevada Power Company,OP,36.134444,-115.035278,3.3,2013-05
ipp-non-chp,17650,Southern Power Co,58489,NEVP,Nevada Power Company,OP,36.39,-114.97,20,2012-07
ipp-non-chp,17650,Southern Power Co,58490,NEVP,Nevada Power Company,OP,36.23,-114.87,30,2013-09
ipp-non-chp,58515,NextEra Energy Mountain View Solar,58544,NEVP,Nevada Power Company,OP,36.390556,-114.964444,20,2014-01
ipp-non-chp,59363,"Silver State Solar Power South, LLC",58644,CISO,California Independent System Operator,OP,35.63,-115.32,260.1,2015-11
ipp-non-chp,17650,Southern Power Co,58646,CISO,California Independent System Operator,OP,35.6,-115.4,299.5,2015-12
ipp-non-chp,58790,"Copper Mountain Solar 3, LLC",58915,LDWP,Los Angeles Department of Water and Power,OP,35.889419,-114.957912,255,2014-05
ipp-non-chp,59175,Searchlight Solar LLC,59404,NEVP,Nevada Power Company,OP,35.479722,-114.936111,17.5,2014-12
ipp-non-chp,59208,NRG Solar Las Vegas MB-1,59430,NEVP,Nevada Power Company,OP,36.088611,-115.177778,5,2015-02
commercial-non-chp,57369,"Apple, Inc",59472,NEVP,Nevada Power Company,OP,39.128056,-119.14,19.9,2015-05
ipp-non-chp,59514,"River Mountains Solar, LLC",59747,NEVP,Nevada Power Company,OP,36.031616,-114.929399,14.4,2016-01
ipp-non-chp,59595,"Copper Mountain Solar 4, LLC",59814,CISO,California Independent System Operator,OP,35.78222,-114.975375,93.6,2016-10
ipp-non-chp,61785,EDP Renewables North America LLC,59826,CISO,California Independent System Operator,OP,36.518,-116.497,103.5,2019-12
ipp-non-chp,57170,"EDF Renewable Asset Holdings, Inc.",59827,NEVP,Nevada Power Company,OP,36.408,-114.908,79,2017-10
electric-utility,13407,Nevada Power Co,59919,NEVP,Nevada Power Company,OP,36.206672,-115.047703,15,2015-11
ipp-non-chp,57170,"EDF Renewable Asset Holdings, Inc.",60261,NEVP,Nevada Power Company,OP,36.408,-114.908,100,2017-08
ipp-non-chp,60145,NRG Solar Las Vegas MB 2,60350,NEVP,Nevada Power Company,OP,36.087426,-115.175381,1.9,2016-07
ipp-non-chp,17650,Southern Power Co,60352,NEVP,Nevada Power Company,OP,35.348,-114.97,100,2016-12
ipp-non-chp,60472,Tungsten Mountain,60785,NEVP,Nevada Power Company,OP,39.667002,-117.693658,7.3,2019-07
ipp-non-chp,60639,AEP Renewables,60885,NEVP,Nevada Power Company,OP,35.85,-114.944,50,2017-01
ipp-non-chp,59050,Algonquin Power Co,61084,NEVP,Nevada Power Company,OP,38.546947,-118.19156,50,2017-02
commercial-non-chp,57389,IKEA Property Inc,61193,NEVP,Nevada Power Company,OP,36.068926,-115.280825,1,2016-05
ipp-non-chp,61532,Techren Solar I LLC,61611,NEVP,Nevada Power Company,OP,35.851336,-114.974386,100,2019-03
ipp-non-chp,61435,"EGP Stillwater Solar PV II, LLC",61809,NEVP,Nevada Power Company,OP,39.542041,-118.560147,20,2018-06
ipp-non-chp,61442,Dignity - Siena Campus,61825,NEVP,Nevada Power Company,OP,36.004293,-115.115305,1.4,2018-05
ipp-non-chp,61481,Dignity - San Martin,61862,NEVP,Nevada Power Company,OP,36.057181,-115.272131,1.7,2018-05
ipp-non-chp,61533,Techren Solar II LLC,61930,NEVP,Nevada Power Company,OP,35.867258,-114.956428,200,2019-10
ipp-non-chp,61534,Techren Solar III LLC,61931,NEVP,Nevada Power Company,OP,35.844106,-114.9713,25,2020-10
ipp-non-chp,61535,Techren Solar IV LLC,61932,NEVP,Nevada Power Company,OP,35.892658,-114.936525,25,2020-10
ipp-non-chp,61954,Techren Solar V LLC,62440,NEVP,Nevada Power Company,OP,35.899694,-114.92625,50,2020-12
ipp-non-chp,61494,Radian Generation,62636,NEVP,Nevada Power Company,OP,36.275051,-115.972329,15,2017-02
electric-utility,57222,Liberty Utilities (CalPeco Electric) LLC,62980,NEVP,Nevada Power Company,OP,39.59,-119.52,10,2019-11
ipp-non-chp,60025,Greenbacker Renewable Energy Corporation,63906,NEVP,Nevada Power Company,OP,39.57395,-119.5242,60,2020-12
industrial-non-chp,60947,Tesla Inc.,64098,NEVP,Nevada Power Company,OP,39.539511,-119.439158,0.9,2019-07
ipp-non-chp,57170,"EDF Renewable Asset Holdings, Inc.",57372,PGE,Portland General Electric Company,OP,45.112222,-123.234722,1.6,2011-10
ipp-non-chp,57170,"EDF Renewable Asset Holdings, Inc.",57652,PGE,Portland General Electric Company,OP,45.108889,-123.278611,1,2011-10
electric-utility,15248,Portland General Electric Co,57882,PGE,Portland General Electric Company,OP,45.269444,-122.771667,1.7,2012-01
ipp-non-chp,58083,"Outback Solar, LLC",58131,BPAT,Bonneville Power Administration,OP,43.236944,-120.49,4.4,2012-10
electric-utility,14354,PacifiCorp,58150,PACW,PacifiCorp - West,OP,42.17505,-120.362631,2,2012-10
ipp-non-chp,60947,Tesla Inc.,58961,PACW,PacifiCorp - West,OP,42.254167,-121.785,2,2014-01
ipp-non-chp,59143,Old Mill Solar,59374,PACW,PacifiCorp - West,OP,42.203333,-121.046389,5,2015-12
ipp-non-chp,60947,Tesla Inc.,59790,PACW,PacifiCorp - West,OP,44.573484,-123.31695,1.2,2014-03
ipp-non-chp,59788,Steel Bridge Solar. LLC,60057,PGE,Portland General Electric Company,OP,45.068,-123.47,2.3,2016-02
ipp-non-chp,60947,Tesla Inc.,60112,PACW,PacifiCorp - West,OP,45.528457,-122.66317,1.4,2016-07
ipp-non-chp,58695,Coronal Development Services,60330,IPCO,Idaho Power Company,OP,43.936687,-117.381214,6,2016-09
ipp-non-chp,61060,Cypress Creek Renewables,60331,IPCO,Idaho Power Company,OP,44.151256,-117.000071,9,2016-10
ipp-non-chp,58695,Coronal Development Services,60332,IPCO,Idaho Power Company,OP,43.796766,-117.065311,10,2016-09
ipp-non-chp,61060,Cypress Creek Renewables,60333,IPCO,Idaho Power Company,OP,43.998019,-117.10118,4.5,2016-11
ipp-non-chp,61060,Cypress Creek Renewables,60334,IPCO,Idaho Power Company,OP,43.93097,-116.987626,10,2016-11
ipp-non-chp,61060,Cypress Creek Renewables,60335,IPCO,Idaho Power Company,OP,43.965031,-117.25806,10,2016-11
ipp-non-chp,61060,Cypress Creek Renewables,60548,PACW,PacifiCorp - West,OP,44.06803,-121.22838,9.9,2016-12
ipp-non-chp,60358,BC Solar,60616,PACW,PacifiCorp - West,OP,42.175,-120.3598,8,2016-11
ipp-non-chp,60610,"OSLH, LLC",60976,PACW,PacifiCorp - West,OP,44.061,-121.228,9.9,2016-12
ipp-non-chp,15399,Avangrid Renewables LLC,61048,BPAT,Bonneville Power Administration,OP,44.1843,-120.918,56.3,2017-10
ipp-non-chp,63757,"OR Solar 2, LLC",61200,PACW,PacifiCorp - West,OP,42.542084,-122.781338,10,2020-10
ipp-non-chp,59462,"Heelstone Energy Holdings, LLC",61201,PACW,PacifiCorp - West,OP,42.022336,-121.418873,10,2017-12
ipp-non-chp,60888,"GCL New Energy, Inc.",61281,PACW,PacifiCorp - West,OP,44.060814,-121.237203,10,2018-09
ipp-non-chp,60978,"SP Solar 5, LLC",61338,PGE,Portland General Electric Company,OP,45.16964,-123.13633,2.2,2017-12
ipp-non-chp,15399,Avangrid Renewables LLC,61345,AVRN,Avangrid Renewables LLC,OP,45.5846,-120.59994,10,2018-08
ipp-non-chp,59462,"Heelstone Energy Holdings, LLC",61423,PACW,PacifiCorp - West,OP,42.030332,-121.611565,8,2018-01
ipp-non-chp,59462,"Heelstone Energy Holdings, LLC",61424,PACW,PacifiCorp - West,OP,42.238888,-121.585833,10,2018-03
ipp-non-chp,59462,"Heelstone Energy Holdings, LLC",61430,PACW,PacifiCorp - West,OP,42.208988,-120.367807,10,2017-12
ipp-non-chp,60888,"GCL New Energy, Inc.",61496,PACW,PacifiCorp - West,OP,44.675,-121.122,10,2018-07
ipp-non-chp,60888,"GCL New Energy, Inc.",61497,PACW,PacifiCorp - West,OP,44.618,-121.205,10,2018-08
ipp-non-chp,60609,"Clean Focus Renewables, Inc.",61553,PACW,PacifiCorp - West,OP,42.183,-121.764,2.9,2017-12
ipp-non-chp,61160,"Woodline Solar, LLC",61559,PACW,PacifiCorp - West,OP,42.236443,-121.57766,8,2017-12
ipp-non-chp,61161,"Norwest Energy 7, LLC",61560,PACW,PacifiCorp - West,OP,42.400814,-122.82917,9.9,2017-12
ipp-non-chp,59462,"Heelstone Energy Holdings, LLC",61580,PACW,PacifiCorp - West,OP,44.192575,-121.233106,9.9,2017-12
ipp-non-chp,59462,"Heelstone Energy Holdings, LLC",61631,PACW,PacifiCorp - West,OP,42.610732,-121.861248,9.9,2018-01
ipp-non-chp,61451,"SP Solar 7, LLC",61827,PGE,Portland General Electric Company,OP,45.17,-123.135,2.2,2017-12
ipp-non-chp,61450,"SP Solar 8, LLC",61828,PGE,Portland General Electric Company,OP,45.033,-123.094,2.2,2017-12
ipp-non-chp,61449,"Silverton Solar, LLC",61829,PGE,Portland General Electric Company,OP,45.014,-122.807,2.2,2017-12
ipp-non-chp,61448,"Sheep Solar, LLC",61830,PGE,Portland General Electric Company,OP,44.826,-122.949,2.2,2017-12
ipp-non-chp,61445,"SP Solar 6, LLC",61831,PGE,Portland General Electric Company,OP,45.17,-122.473,2.2,2017-12
ipp-non-chp,61447,"SP Solar 1, LLC",61832,PGE,Portland General Electric Company,OP,45.129,-122.899,2.2,2017-12
ipp-non-chp,61454,"NorWest Energy 14, LLC",61835,PGE,Portland General Electric Company,OP,45.054,-123.61,2.2,2017-12
ipp-non-chp,60496,"Adapture Renewables, Inc.",61844,IPCO,Idaho Power Company,OP,44.465334,-118.204075,2.8,2020-01
ipp-non-chp,60496,"Adapture Renewables, Inc.",61854,IPCO,Idaho Power Company,OP,44.702418,-117.763482,15,2020-02
ipp-non-chp,60496,"Adapture Renewables, Inc.",61855,IPCO,Idaho Power Company,OP,43.951376,-117.07478,3,2020-05
ipp-non-chp,60496,"Adapture Renewables, Inc.",61856,IPCO,Idaho Power Company,OP,44.157874,-117.44434,3,2020-08
ipp-non-chp,60496,"Adapture Renewables, Inc.",61860,IPCO,Idaho Power Company,OP,44.112841,-117.028093,3,2020-05
ipp-non-chp,61705,Boring Solar LLC,62169,PGE,Portland General Electric Company,OP,45.431,-122.285,2.2,2019-04
ipp-non-chp,61703,Ballston Solar LLC,62170,PGE,Portland General Electric Company,OP,45.077,-123.395,2.2,2018-12
ipp-non-chp,61704,Labish Solar LLC,62171,PGE,Portland General Electric Company,OP,45.023,-122.922,2.2,2018-12
ipp-non-chp,61494,Radian Generation,62241,PACW,PacifiCorp - West,OP,45.917,-119.343,8,2018-09
ipp-non-chp,61494,Radian Generation,62268,PACW,PacifiCorp - West,OP,42.695,-121.614,5.6,2019-01
ipp-non-chp,60888,"GCL New Energy, Inc.",62272,PACW,PacifiCorp - West,OP,42.392193,-121.024494,8,2018-12
ipp-non-chp,62051,Airport Solar LLC,62560,PACW,PacifiCorp - West,OP,42.170176,-120.402317,47.3,2019-12
ipp-non-chp,62989,Rafael Solar LLC,63206,PGE,Portland General Electric Company,OP,44.859838,-123.007913,2.2,2019-10
ipp-non-chp,62990,Case Creek Solar LLC,63207,PGE,Portland General Electric Company,OP,45.172,-122.912,2.2,2019-10
ipp-non-chp,62991,Kale Patch Solar LLC,63208,PGE,Portland General Electric Company,OP,45.083,-122.904,2.2,2019-10
ipp-non-chp,62992,O'Neill Creek Solar LLC,63235,PGE,Portland General Electric Company,OP,45.472,-123.129,2.2,2019-11
ipp-non-chp,63065,SOLV Inc.,63301,PACW,PacifiCorp - West,OP,42.16,-120.4,10,2019-12
ipp-non-chp,62627,Alchemy Renewable Energy,63330,PGE,Portland General Electric Company,OP,45.35,-122.35,10,2020-02
ipp-non-chp,62627,Alchemy Renewable Energy,63331,PGE,Portland General Electric Company,OP,45.35,-122.25,10,2020-02
ipp-non-chp,63121,"Starvation Solar I, LLC",63344,BPAT,Bonneville Power Administration,OP,43.50222,-119.14852,9.9,2019-12
ipp-non-chp,63185,Neighborhood Power Corp.,63442,PGE,Portland General Electric Company,OP,45.375,-122.265,1.9,2019-12
ipp-non-chp,63185,Neighborhood Power Corp.,63443,PGE,Portland General Electric Company,OP,45.131407,-122.619475,2.2,2019-11
ipp-non-chp,63185,Neighborhood Power Corp.,63456,PGE,Portland General Electric Company,OP,45.11994,-122.9361,2.2,2020-03
ipp-non-chp,63202,"Pika Solar, LLC",63462,PGE,Portland General Electric Company,OP,45.089244,-122.7705,2.2,2020-12
ipp-non-chp,63205,"Brush Creek Solar, LLC",63464,PGE,Portland General Electric Company,OP,44.984217,-122.813127,2.2,2020-05
ipp-non-chp,63206,"Minke Solar, LLC",63465,PGE,Portland General Electric Company,OP,45.172332,-122.622665,2.2,2020-12
ipp-non-chp,63207,"Drift Creek Solar, LLC",63466,PGE,Portland General Electric Company,OP,44.970572,-122.803509,2.2,2020-05
ipp-non-chp,63208,"Bighorn Solar, LLC",63467,PGE,Portland General Electric Company,OP,44.965702,-122.954234,2.2,2020-12
ipp-non-chp,63339,"Fort Rock Solar I, LLC",63636,BPAT,Bonneville Power Administration,OP,43.320081,-121.003496,9.9,2020-03
ipp-non-chp,63459,"Suntex Solar, LLC",63778,BPAT,Bonneville Power Administration,OP,43.56149,-119.68621,10,2020-07
ipp-non-chp,63460,"Rock Garden, LLC",63779,BPAT,Bonneville Power Administration,OP,43.39691,-120.93038,10,2020-06
ipp-non-chp,63468,"Alkali Solar, LLC",63795,BPAT,Bonneville Power Administration,OP,43.31942,-121.0035,10,2020-06
ipp-non-chp,63469,"West Hines Solar I, LLC",63796,BPAT,Bonneville Power Administration,OP,43.50259,-119.14713,10,2020-06
ipp-non-chp,63573,SulusSolar17,63908,PGE,Portland General Electric Company,OP,45.34891,-122.433515,3.1,2020-06
ipp-non-chp,63592,Riley Solar I LLC,63925,BPAT,Bonneville Power Administration,OP,43.5559,-119.6852,10,2020-07
ipp-non-chp,63593,Fort Rock Solar IV LLC,63926,BPAT,Bonneville Power Administration,OP,43.38988,-120.956087,10,2020-06
ipp-non-chp,60025,Greenbacker Renewable Energy Corporation,63956,PGE,Portland General Electric Company,OP,45.18484,-123.10175,2.3,2020-11
ipp-non-chp,60025,Greenbacker Renewable Energy Corporation,63957,PGE,Portland General Electric Company,OP,45.26866,-122.32942,2.3,2020-10
ipp-non-chp,63623,"Thor Solar 1 CEI, LLC",63958,PGE,Portland General Electric Company,OP,44.985,-122.938,2,2020-12
ipp-non-chp,63623,"Thor Solar 1 CEI, LLC",63959,PGE,Portland General Electric Company,OP,45.11601,-122.793791,2,2020-12
ipp-non-chp,63623,"Thor Solar 1 CEI, LLC",63960,PGE,Portland General Electric Company,OP,45.254,-122.806,2,2020-12
ipp-non-chp,63623,"Thor Solar 1 CEI, LLC",63961,PGE,Portland General Electric Company,OP,45.42,-122.333,4,2020-12
ipp-non-chp,63623,"Thor Solar 1 CEI, LLC",63962,PGE,Portland General Electric Company,OP,45.102,-122.662,2,2020-12
ipp-non-chp,63623,"Thor Solar 1 CEI, LLC",63963,PGE,Portland General Electric Company,OP,45.182,-122.591,2,2020-12
ipp-non-chp,63623,"Thor Solar 1 CEI, LLC",63964,PGE,Portland General Electric Company,OP,45.139507,-122.904499,2,2020-12
ipp-non-chp,63624,SulusSolar35,63969,PGE,Portland General Electric Company,OP,45.140551,-122.649655,3,2020-07
ipp-non-chp,63656,SulusSolar28,64007,PGE,Portland General Electric Company,OP,45.1,-123.52,3,2020-10
ipp-non-chp,63671,GreenparkSolar,64033,PGE,Portland General Electric Company,OP,44.879414,-122.937451,1.3,2020-11
ipp-non-chp,63670,SulusSolar25,64034,PGE,Portland General Electric Company,OP,45.27,-122.82,2.2,2020-10
ipp-non-chp,63688,SulusSolar29,64048,PGE,Portland General Electric Company,OP,45.46,-122.29,2.6,2020-12
ipp-non-chp,56565,TX Solar I LLC,57197,ERCO,"Electric Reliability Council of Texas, Inc.",OP,29.304177,-98.400339,13.9,2010-11
ipp-non-chp,57021,FRV AE Solar LLC,57699,ERCO,"Electric Reliability Council of Texas, Inc.",OP,30.238492,-97.508812,30,2011-12
ipp-non-chp,57386,SunE CPS3 LLC,58009,ERCO,"Electric Reliability Council of Texas, Inc.",OP,29.221944,-98.669167,10.6,2012-05
commercial-non-chp,57389,IKEA Property Inc,58013,ERCO,"Electric Reliability Council of Texas, Inc.",OP,30.557044,-97.690286,1.4,2012-09
ipp-non-chp,57403,SunE CPS2 LLC,58027,ERCO,"Electric Reliability Council of Texas, Inc.",OP,29.245,-98.418333,10,2012-05
ipp-non-chp,57419,SunE CPS1 LLC,58068,ERCO,"Electric Reliability Council of Texas, Inc.",OP,29.245,-98.418333,10,2012-05
ipp-non-chp,58473,"NVT LICENSES, LLC",58488,ERCO,"Electric Reliability Council of Texas, Inc.",OP,29.6,-104.3,10,2013-06
ipp-non-chp,58489,OCI Solar Power,58537,ERCO,"Electric Reliability Council of Texas, Inc.",OP,29.271667,-98.444722,40.7,2013-12
ipp-non-chp,59745,First Solar Asset Management,58710,ERCO,"Electric Reliability Council of Texas, Inc.",OP,30.96,-103.35,30.2,2015-06
ipp-non-chp,58489,OCI Solar Power,58716,ERCO,"Electric Reliability Council of Texas, Inc.",OP,29.469444,-98.331944,4.4,2014-03
ipp-non-chp,56769,Consolidated Edison Development Inc.,58717,ERCO,"Electric Reliability Council of Texas, Inc.",OP,29.328889,-100.383889,39.6,2014-08
ipp-non-chp,56769,Consolidated Edison Development Inc.,59204,ERCO,"Electric Reliability Council of Texas, Inc.",OP,29.479167,-98.297222,5.5,2015-01
ipp-non-chp,56769,Consolidated Edison Development Inc.,59205,ERCO,"Electric Reliability Council of Texas, Inc.",OP,29.216667,-99.716111,100,2015-12
ipp-non-chp,59359,"BHE Renewables, LLC",59206,ERCO,"Electric Reliability Council of Texas, Inc.",OP,30.993056,-102.270833,105,2017-03
ipp-non-chp,56769,Consolidated Edison Development Inc.,59207,ERCO,"Electric Reliability Council of Texas, Inc.",OP,33.04,-99.5525,100,2016-08
ipp-non-chp,59180,Newman Solar LLC,59407,EPE,El Paso Electric Company,OP,31.978333,-106.4275,10.5,2014-12
ipp-non-chp,17650,Southern Power Co,59994,ERCO,"Electric Reliability Council of Texas, Inc.",OP,30.960209,-103.306662,160,2016-11
ipp-non-chp,59777,"Buckthorn Westex, LLC",60044,ERCO,"Electric Reliability Council of Texas, Inc.",OP,30.57552,-102.551292,202,2018-05
ipp-non-chp,61123,Upton County Solar 2 LLC,60123,ERCO,"Electric Reliability Council of Texas, Inc.",OP,31.255,-102.272,180,2018-05
electric-utility,5701,El Paso Electric Co,60300,EPE,El Paso Electric Company,OP,31.813061,-106.218892,3,2017-05
ipp-non-chp,17650,Southern Power Co,60372,ERCO,"Electric Reliability Council of Texas, Inc.",OP,32.715611,-101.926522,100,2017-04
ipp-non-chp,60228,CoServ Electric,60427,ERCO,"Electric Reliability Council of Texas, Inc.",OP,33.2706,-96.979168,2,2015-06
ipp-non-chp,17650,Southern Power Co,60436,ERCO,"Electric Reliability Council of Texas, Inc.",OP,31.000883,-102.281744,118.5,2017-04
ipp-non-chp,58519,Clean Energy Collective LLC,60472,ERCO,"Electric Reliability Council of Texas, Inc.",OP,29.377966,-98.26922,1,2016-08
ipp-non-chp,56769,Consolidated Edison Development Inc.,60581,ERCO,"Electric Reliability Council of Texas, Inc.",OP,31.241808,-102.29027,150,2017-12
ipp-non-chp,59359,"BHE Renewables, LLC",60682,ERCO,"Electric Reliability Council of Texas, Inc.",OP,30.98784,-102.26831,50,2017-10
ipp-non-chp,60400,"Phantom Solar, LLC",60774,ERCO,"Electric Reliability Council of Texas, Inc.",OP,31.114983,-97.845111,15.4,2017-04
ipp-non-chp,60476,"Bluebell Solar, LLC",60789,ERCO,"Electric Reliability Council of Texas, Inc.",OP,31.87,-100.828,30,2018-11
ipp-non-chp,60636,"SolaireHolman 1, LLC",60989,ERCO,"Electric Reliability Council of Texas, Inc.",OP,30.45512,-103.4747,50,2017-04
ipp-non-chp,60520,SoCore Energy LLC,61205,ERCO,"Electric Reliability Council of Texas, Inc.",OP,29.681032,-99.762212,1.5,2017-02
ipp-non-chp,57389,IKEA Property Inc,61309,ERCO,"Electric Reliability Council of Texas, Inc.",OP,32.82,-97.05,1.2,2017-12
ipp-non-chp,61801,"D E Shaw & Co., LP",61368,ERCO,"Electric Reliability Council of Texas, Inc.",OP,30.995503,-102.223537,182,2018-12
ipp-non-chp,61060,Cypress Creek Renewables,61370,ERCO,"Electric Reliability Council of Texas, Inc.",OP,32.07868,-97.768464,5,2016-12
ipp-non-chp,61060,Cypress Creek Renewables,61409,ERCO,"Electric Reliability Council of Texas, Inc.",OP,33.614436,-96.690448,5.3,2017-12
ipp-non-chp,61060,Cypress Creek Renewables,61410,ERCO,"Electric Reliability Council of Texas, Inc.",OP,33.616526,-96.868721,5,2017-12
ipp-non-chp,61060,Cypress Creek Renewables,61411,ERCO,"Electric Reliability Council of Texas, Inc.",OP,33.624853,-96.867474,5,2017-12
ipp-non-chp,61100,Harvest Moon Renewable Energy Company LLC,61493,ERCO,"Electric Reliability Council of Texas, Inc.",OP,29.740788,-96.15994,1.6,2015-12
ipp-non-chp,61060,Cypress Creek Renewables,61513,ERCO,"Electric Reliability Council of Texas, Inc.",OP,31.286739,-96.877205,5.3,2017-12
ipp-non-chp,61060,Cypress Creek Renewables,61514,ERCO,"Electric Reliability Council of Texas, Inc.",OP,33.656072,-97.148569,5.2,2017-12
ipp-non-chp,61060,Cypress Creek Renewables,61524,ERCO,"Electric Reliability Council of Texas, Inc.",OP,33.498186,-96.378894,10,2017-12
ipp-non-chp,61060,Cypress Creek Renewables,61532,ERCO,"Electric Reliability Council of Texas, Inc.",OP,33.16114,-96.239739,10,2017-12
ipp-non-chp,61060,Cypress Creek Renewables,61625,ERCO,"Electric Reliability Council of Texas, Inc.",OP,33.619,-96.627,5,2018-12
ipp-non-chp,62080,"Lamesa Solar II, L.L.C.",61697,ERCO,"Electric Reliability Council of Texas, Inc.",OP,32.713326,-101.885218,50,2018-11
ipp-non-chp,61323,"PowerFin ASL 1, LLC",61700,ERCO,"Electric Reliability Council of Texas, Inc.",OP,30.265877,-97.684861,2.6,2018-03
ipp-non-chp,61060,Cypress Creek Renewables,61810,ERCO,"Electric Reliability Council of Texas, Inc.",OP,33.63291,-95.39071,10,2018-12
ipp-non-chp,61060,Cypress Creek Renewables,61867,ERCO,"Electric Reliability Council of Texas, Inc.",OP,29.631324,-96.076894,10,2018-12
ipp-non-chp,61060,Cypress Creek Renewables,61868,ERCO,"Electric Reliability Council of Texas, Inc.",OP,29.537482,-95.969548,10,2018-12
ipp-non-chp,61060,Cypress Creek Renewables,61871,ERCO,"Electric Reliability Council of Texas, Inc.",OP,33.166173,-96.172617,10,2018-11
ipp-non-chp,61060,Cypress Creek Renewables,61872,ERCO,"Electric Reliability Council of Texas, Inc.",OP,30.872228,-99.537261,7.5,2019-11
ipp-non-chp,61060,Cypress Creek Renewables,61873,ERCO,"Electric Reliability Council of Texas, Inc.",OP,31.933841,-97.653747,5,2018-11
ipp-non-chp,61060,Cypress Creek Renewables,61874,ERCO,"Electric Reliability Council of Texas, Inc.",OP,31.291151,-97.260738,10,2018-11
ipp-non-chp,61060,Cypress Creek Renewables,61875,ERCO,"Electric Reliability Council of Texas, Inc.",OP,29.205355,-96.023384,10,2019-04
ipp-non-chp,60146,Ameresco Federal Solutions,61887,EPE,El Paso Electric Company,OP,31.829986,-106.372861,2,2018-07
ipp-non-chp,61509,"PGC Plano I, LLC",61895,ERCO,"Electric Reliability Council of Texas, Inc.",OP,33.084219,-96.84113,7.7,2017-09
ipp-non-chp,61515,"Phoebe Energy Project, LLC",61906,ERCO,"Electric Reliability Council of Texas, Inc.",OP,31.843422,-102.868295,250,2019-11
ipp-non-chp,61524,226HC 8me LLC,61962,ERCO,"Electric Reliability Council of Texas, Inc.",OP,32.104125,-100.162375,200,2020-06
ipp-non-chp,61678,RE Rambler LLC,62141,ERCO,"Electric Reliability Council of Texas, Inc.",OP,31.517,-100.6,200,2020-06
commercial-non-chp,57389,IKEA Property Inc,62152,ERCO,"Electric Reliability Council of Texas, Inc.",OP,29.48,-98.25,1.7,2019-04
ipp-non-chp,63048,Misae Lessee LLC,62249,ERCO,"Electric Reliability Council of Texas, Inc.",OP,34.380532,-100.099625,240,2020-01
ipp-non-chp,56215,RWE Renewables Americas LLC,62415,ERCO,"Electric Reliability Council of Texas, Inc.",OP,31.4308,-103.7289,100,2019-12
ipp-non-chp,61960,Lapetus Energy Project LLC,62448,ERCO,"Electric Reliability Council of Texas, Inc.",OP,32.460054,-102.672809,100,2019-12
ipp-non-chp,62047,"Roadrunner Solar, LLC",62561,ERCO,"Electric Reliability Council of Texas, Inc.",OP,31.219444,-102.19222,400,2020-08
electric-utility,16604,City of San Antonio - (TX),62610,ERCO,"Electric Reliability Council of Texas, Inc.",OP,29.43445,-98.61765,5,2019-12
ipp-non-chp,61219,Longroad Energy Services LLC,62755,ERCO,"Electric Reliability Council of Texas, Inc.",OP,32.287873,-102.840399,300,2020-06
ipp-non-chp,60496,"Adapture Renewables, Inc.",62773,ERCO,"Electric Reliability Council of Texas, Inc.",OP,33.5493,-97.1798,59,2020-12
ipp-non-chp,62682,Kellam Solar LLC,62774,ERCO,"Electric Reliability Council of Texas, Inc.",OP,32.4744,-95.7156,59,2020-12
ipp-non-chp,56201,Engie North America,62845,ERCO,"Electric Reliability Council of Texas, Inc.",OP,32.741383,-101.621793,225,2020-12
ipp-non-chp,62789,Oberon Solar IB,62932,ERCO,"Electric Reliability Council of Texas, Inc.",OP,31.692358,-102.69743,30,2020-07
ipp-non-chp,62788,Oberon Solar IA,62933,ERCO,"Electric Reliability Council of Texas, Inc.",OP,31.703258,-102.701206,150,2020-07
ipp-non-chp,61060,Cypress Creek Renewables,62953,ERCO,"Electric Reliability Council of Texas, Inc.",OP,31.474114,-97.141218,5,2019-11
ipp-non-chp,61060,Cypress Creek Renewables,63027,ERCO,"Electric Reliability Council of Texas, Inc.",OP,27.421553,-98.834962,10,2019-08
ipp-non-chp,62627,Alchemy Renewable Energy,63180,ERCO,"Electric Reliability Council of Texas, Inc.",OP,32.05,-97.35,9.9,2017-12
ipp-non-chp,62842,"Lightsource Renewable Energy Asset Management, LLC",63222,ERCO,"Electric Reliability Council of Texas, Inc.",OP,33.467803,-95.370856,198.5,2020-12
ipp-non-chp,61060,Cypress Creek Renewables,63273,ERCO,"Electric Reliability Council of Texas, Inc.",OP,29.242304,-95.658144,120,2020-08
ipp-non-chp,63116,"Bluebell Solar II, LLC",63351,ERCO,"Electric Reliability Council of Texas, Inc.",OP,31.888,-100.825,115,2020-12
ipp-non-chp,63183,Oxy Renewable Energy LLC,63388,ERCO,"Electric Reliability Council of Texas, Inc.",OP,31.982702,-102.340588,16.8,2020-05
ipp-non-chp,56769,Consolidated Edison Development Inc.,63519,ERCO,"Electric Reliability Council of Texas, Inc.",OP,31.254361,-102.31165,150,2020-07
ipp-non-chp,63713,CatanSolar,64079,ERCO,"Electric Reliability Council of Texas, Inc.",OP,28.871642,-97.696944,10,2020-12
ipp-non-chp,61677,Sol Systems,64227,ERCO,"Electric Reliability Council of Texas, Inc.",OP,26.88913,-98.233324,10,2019-12
ipp-non-chp,57383,Wasatch View Solar LLC,58006,PACE,PacifiCorp - East,OP,40.767222,-111.895,1.3,2012-05
ipp-non-chp,59155,"First Wind O&M, LLC",58598,PACE,PacifiCorp - East,OP,37.639167,-113.645833,3,2015-08
ipp-non-chp,59155,"First Wind O&M, LLC",58599,PACE,PacifiCorp - East,OP,37.807778,-113.09,3,2015-12
ipp-non-chp,59155,"First Wind O&M, LLC",58600,PACE,PacifiCorp - East,OP,38.023333,-112.731667,3,2015-12
ipp-non-chp,59155,"First Wind O&M, LLC",58601,PACE,PacifiCorp - East,OP,38.291389,-113.008333,3,2015-07
ipp-non-chp,59155,"First Wind O&M, LLC",58602,PACE,PacifiCorp - East,OP,38.291389,-113.035556,3,2015-07
ipp-non-chp,59155,"First Wind O&M, LLC",58603,PACE,PacifiCorp - East,OP,38.256111,-112.735833,2.2,2015-10
ipp-non-chp,59155,"First Wind O&M, LLC",58604,PACE,PacifiCorp - East,OP,38.402778,-112.988889,3,2015-08
ipp-non-chp,58602,Utah Red Hills Renewable Energy Park LLC,58660,PACE,PacifiCorp - East,OP,37.882778,-112.904167,80,2015-12
ipp-non-chp,58468,Dominion Renewable Energy,59386,PACE,PacifiCorp - East,OP,37.641111,-113.6125,80,2016-07
ipp-non-chp,58468,Dominion Renewable Energy,59387,PACE,PacifiCorp - East,OP,38.524167,-113.033889,80,2016-08
ipp-non-chp,58468,Dominion Renewable Energy,59388,PACE,PacifiCorp - East,OP,38.500833,-113.03,80,2016-08
ipp-non-chp,58468,Dominion Renewable Energy,59389,PACE,PacifiCorp - East,OP,38.497778,-112.986944,80,2016-08
ipp-non-chp,59358,"REUT Origination, LLC",59620,PACE,PacifiCorp - East,OP,38.311111,-113.053611,2.9,2015-03
ipp-non-chp,58468,Dominion Renewable Energy,59702,PACE,PacifiCorp - East,OP,38.960519,-112.36327,50,2015-12
ipp-non-chp,59561,"SunE Solar XVII Project 2, LLC",59786,PACE,PacifiCorp - East,OP,37.794678,-113.283666,3,2015-09
ipp-non-chp,59560,"SunE Solar XVII Project 1, LLC",59787,PACE,PacifiCorp - East,OP,37.750268,-113.253724,3,2015-09
ipp-non-chp,59695,"SunE Solar XVII Project 3, LLC",59932,PACE,PacifiCorp - East,OP,37.731338,-113.216634,3,2015-12
ipp-non-chp,58468,Dominion Renewable Energy,59941,PACE,PacifiCorp - East,OP,37.7212,-113.1516,80,2016-08
ipp-non-chp,58468,Dominion Renewable Energy,59945,PACE,PacifiCorp - East,OP,37.7989,-113.322,50.4,2016-09
ipp-non-chp,58468,Dominion Renewable Energy,59946,PACE,PacifiCorp - East,OP,37.77509,-113.226403,80,2016-09
ipp-non-chp,59716,SunE DB24 LLC,59958,PACE,PacifiCorp - East,OP,38.388243,-112.990812,3,2015-12
ipp-non-chp,60245,Three Peaks Power LLC,60432,PACE,PacifiCorp - East,OP,37.827082,-113.137082,80,2016-12
ipp-non-chp,60238,Pavant Solar II LLC,60449,PACE,PacifiCorp - East,OP,39.1625,-112.343,50,2016-11
ipp-non-chp,60947,Tesla Inc.,60821,WACM,Western Area Power Administration - Rocky Mountain Region,OP,41.098957,-111.982167,1.3,2017-01
ipp-non-chp,60536,Pavant Solar III LLC,60886,PACE,PacifiCorp - East,OP,39.154474,-112.359849,20,2016-12
ipp-non-chp,60731,Quichapa 1 LLC,61119,PACE,PacifiCorp - East,OP,37.658223,-113.216679,3,2016-12
ipp-non-chp,60732,Quichapa 2 LLC,61120,PACE,PacifiCorp - East,OP,37.666772,-113.188953,3,2016-12
ipp-non-chp,60733,Quichapa 3 LLC,61121,PACE,PacifiCorp - East,OP,37.649816,-113.236928,3,2016-12
ipp-non-chp,61934,CI III VK I TE Partnership LLC,62399,PACE,PacifiCorp - East,OP,41.77,-111.06,57.6,2019-09
ipp-non-chp,62802,Cove Mountain Solar LLC,62469,PACE,PacifiCorp - East,OP,37.623123,-113.619219,58,2020-11
ipp-non-chp,62803,Cove Mountain Solar 2 LLC,62470,PACE,PacifiCorp - East,OP,37.638602,-113.637097,122,2020-10
ipp-non-chp,62703,Bloomington Solar I,62805,PACE,PacifiCorp - East,OP,37.043828,-113.627523,2,2018-12
ipp-non-chp,63440,Milford Solar I (NES),62812,PACE,PacifiCorp - East,OP,38.490667,-113.018283,99,2020-11
electric-utility,15500,Puget Sound Energy Inc,56322,PSEI,Puget Sound Energy,OP,47.036269,-120.206494,0.5,2007-10
ipp-non-chp,61529,"Adams Nielson Solar, LLC",61933,AVA,Avista Corporation,OP,46.95528,-118.621244,19.2,2018-11
electric-utility,20160,Energy Northwest,64198,BPAT,Bonneville Power Administration,OP,46.3529,-119.3222,3.2,2020-10
electric-utility,17470,PUD 1 of Snohomish County,64446,BPAT,Bonneville Power Administration,OP,48.15614,-122.1502,0.5,2019-06
ipp-non-chp,61005,Sweetwater Solar LLC,61369,PACE,PacifiCorp - East,OP,41.629056,-109.683472,92,2018-12
electric-utility,803,Arizona Public Service Co,116,AZPS,Arizona Public Service Company,OP,33.4225,-111.9122,0.6,1998-03
electric-utility,16572,Salt River Project,141,SRP,Salt River Project,OP,33.5561,-112.2153,0.2,2001-06
electric-utility,24211,Tucson Electric Power Co,8223,TEPC,Tucson Electric Power Company,OP,34.3186,-109.1639,13.4,2014-12
electric-utility,803,Arizona Public Service Co,56228,AZPS,Arizona Public Service Company,OP,34.6584,-112.4008,2.1,2002-10
ipp-non-chp,15399,Avangrid Renewables LLC,57318,SRP,Salt River Project,OP,33.160601,-111.484011,20,2011-12
electric-utility,803,Arizona Public Service Co,57324,AZPS,Arizona Public Service Company,OP,33.526111,-112.37944,15,2015-06
ipp-non-chp,59396,Agua Caliente Solar,57373,CISO,California Independent System Operator,OP,32.9774,-113.4945,347.7,2012-05
electric-utility,24211,Tucson Electric Power Co,57392,TEPC,Tucson Electric Power Company,OP,32.096973,-110.8106,1.2,2010-12
ipp-non-chp,56857,SunE M5C Holdings LLC,57524,TEPC,Tucson Electric Power Company,OP,32.2894,-111.0331,1.1,2010-08
electric-utility,19728,"UNS Electric, Inc",57556,TEPC,Tucson Electric Power Company,OP,35.241675,-114.004591,1,2011-11
electric-utility,803,Arizona Public Service Co,57560,AZPS,Arizona Public Service Company,OP,34.71843,-112.42899,19,2012-12
electric-utility,803,Arizona Public Service Co,57561,AZPS,Arizona Public Service Company,OP,33.034722,-112.661667,17,2011-11
electric-utility,803,Arizona Public Service Co,57562,AZPS,Arizona Public Service Company,OP,33.021111,-112.661389,17.6,2011-09
electric-utility,803,Arizona Public Service Co,57563,AZPS,Arizona Public Service Company,OP,33.02566,-113.34397,22,2011-11
ipp-non-chp,59398,NRG Solar Avra Valley,57657,TEPC,Tucson Electric Power Company,OP,32.371667,-111.282777,26.5,2013-01
ipp-non-chp,56998,"Macys Corporate Services, Inc",57673,AZPS,Arizona Public Service Company,OP,33.409063,-112.414596,3.5,2010-12
ipp-non-chp,57004,Arlington Valley Solar Energy II LLC,57680,AZPS,Arizona Public Service Company,OP,33.305,-112.833888,129,2013-04
ipp-non-chp,57030,"Mesquite Solar 1, LLC",57707,SRP,Salt River Project,OP,33.341833,-112.904028,170,2011-11
electric-utility,24211,Tucson Electric Power Co,57717,TEPC,Tucson Electric Power Company,OP,32.103471,-110.820319,2.8,2012-01
ipp-non-chp,58863,Main Street Power,57765,AZPS,Arizona Public Service Company,OP,32.687778,-114.49611,5.7,2011-11
ipp-non-chp,11556,Brookfield Energy Marketing LP,57775,AZPS,Arizona Public Service Company,OP,35.145833,-114.0675,0.5,2011-09
ipp-non-chp,57107,RE Bagdad Solar 1 LLC,57790,AZPS,Arizona Public Service Company,OP,34.585833,-113.177222,16.6,2011-12
ipp-non-chp,57112,RE Ajo 1 LLC,57795,AZPS,Arizona Public Service Company,OP,32.367013,-112.831401,4.5,2011-08
ipp-non-chp,57219,Siete Solar LLC,57883,SRP,Salt River Project,OP,33.2675,-111.612222,19,2012-10
ipp-non-chp,61055,FRB Solar LLC,57930,TEPC,Tucson Electric Power Company,OP,32.108147,-110.824662,1.9,2011-04
ipp-non-chp,60947,Tesla Inc.,57939,AZPS,Arizona Public Service Company,OP,32.866837,-111.771751,2,2011-06
electric-utility,803,Arizona Public Service Co,57997,AZPS,Arizona Public Service Company,OP,32.64856,-114.428741,35,2013-03
ipp-non-chp,57408,Constellation Solar Arizona LLC,58037,AZPS,Arizona Public Service Company,OP,33.419167,-112.576111,3.3,2011-12
ipp-non-chp,57413,Black Mountain Solar LLC,58042,AZPS,Arizona Public Service Company,OP,35.0227,-114.1627,9,2012-12
ipp-non-chp,58108,"SunE AZ1, LLC",58147,AZPS,Arizona Public Service Company,OP,34.649444,-112.4275,10.8,2011-12
electric-utility,24211,Tucson Electric Power Co,58171,TEPC,Tucson Electric Power Company,OP,32.116389,-110.82,4.5,2012-12
ipp-non-chp,58182,SunE AZ2 LLC,58213,AZPS,Arizona Public Service Company,OP,33.378333,-113.180833,15,2012-12
ipp-non-chp,58239,Desert Sky Solar LLC,58262,AZPS,Arizona Public Service Company,OP,33.498003,-112.813458,14.8,2013-11
ipp-non-chp,58863,Main Street Power,58292,AZPS,Arizona Public Service Company,OP,33.603056,-111.924722,1.1,2012-09
ipp-non-chp,58863,Main Street Power,58293,AZPS,Arizona Public Service Company,OP,33.6416,-111.9997,1.3,2013-01
electric-utility,803,Arizona Public Service Co,58383,AZPS,Arizona Public Service Company,OP,33.027,-113.3489,14,2013-12
ipp-non-chp,57369,"Apple, Inc",58466,CISO,California Independent System Operator,OP,33.346944,-111.603056,4,2013-03
ipp-non-chp,58473,"NVT LICENSES, LLC",58486,TEPC,Tucson Electric Power Company,OP,32.369722,-111.242778,20,2012-12
ipp-non-chp,57354,X-Elio North America Inc,58501,AZPS,Arizona Public Service Company,OP,33.026389,-112.665833,15,2013-12
ipp-non-chp,58491,"Constellation Solar Holding, LLC",58516,AZPS,Arizona Public Service Company,OP,32.936944,-111.738611,1.6,2012-12
ipp-non-chp,58491,"Constellation Solar Holding, LLC",58517,AZPS,Arizona Public Service Company,OP,32.891389,-111.713056,1.8,2012-12
commercial-non-chp,58507,Solar Star Arizona III LLC,58539,AZPS,Arizona Public Service Company,OP,33.820556,-112.24,6.5,2012-12
ipp-non-chp,58514,"Gilbert Solar Facility I, LLC",58543,AZPS,Arizona Public Service Company,OP,33.355862,-111.802355,2.5,2011-10
ipp-non-chp,60947,Tesla Inc.,58632,TEPC,Tucson Electric Power Company,OP,32.1825,-110.863333,3,2009-12
commercial-non-chp,58649,Solar Star Arizona II LLC,58708,AZPS,Arizona Public Service Company,OP,33.4345,-111.9842,1.1,2012-12
commercial-non-chp,58649,Solar Star Arizona II LLC,58709,AZPS,Arizona Public Service Company,OP,33.43042,-112.04484,1.6,2012-12
ipp-non-chp,58705,Washington Gas Energy Systems,58832,TEPC,Tucson Electric Power Company,OP,32.101944,-110.813333,1,2014-07
ipp-non-chp,59146,Red Horse 2,58833,TEPC,Tucson Electric Power Company,OP,32.286111,-110.088056,51,2015-08
ipp-non-chp,58711,"Gato Montes Solar, LLC",58842,TEPC,Tucson Electric Power Company,OP,32.102778,-110.819722,5,2012-12
electric-utility,24211,Tucson Electric Power Co,58972,TEPC,Tucson Electric Power Company,OP,31.555278,-110.35,17.7,2017-01
electric-utility,803,Arizona Public Service Co,59020,AZPS,Arizona Public Service Company,OP,32.940833,-112.881389,32,2014-10
electric-utility,19728,"UNS Electric, Inc",59044,TEPC,Tucson Electric Power Company,OP,31.5,-111.008056,6,2014-03
ipp-non-chp,59384,Avalon Solar,59168,TEPC,Tucson Electric Power Company,OP,32.001389,-110.960556,29,2014-12
electric-utility,803,Arizona Public Service Co,59444,AZPS,Arizona Public Service Company,OP,33.145,-112.66,10,2015-09
ipp-non-chp,59220,"Valencia Solar, LLC",59454,TEPC,Tucson Electric Power Company,OP,32.145833,-110.866944,10,2013-06
ipp-non-chp,59221,"Tech Park Solar, LLC",59455,TEPC,Tucson Electric Power Company,OP,32.097884,-110.815696,5,2012-12
ipp-non-chp,58661,"Sustainable Power Group, LLC",59634,SRP,Salt River Project,OP,33.035556,-111.430278,45,2015-12
ipp-non-chp,59544,"SunE DM, LLC",59779,TEPC,Tucson Electric Power Company,OP,32.17356,-110.899734,12.6,2014-01
ipp-non-chp,59600,"Mohave Sunrise Solar I, LLC",59819,WALC,Western Area Power Administration - Desert Southwest Region,OP,34.9843,-114.5565,14.4,2015-04
ipp-non-chp,59789,"Avalon Solar Partners II, LLC",60062,TEPC,Tucson Electric Power Company,OP,32.000854,-110.958427,16,2016-03
ipp-non-chp,60947,Tesla Inc.,60230,AZPS,Arizona Public Service Company,OP,33.409803,-112.340297,1.8,2019-06
ipp-non-chp,60068,Red Horse III,60285,TEPC,Tucson Electric Power Company,OP,32.13597,-110.05129,30,2016-07
ipp-non-chp,60106,"Mesquite Solar 2, LLC",60307,CISO,California Independent System Operator,OP,33.332777,-112.911388,100,2016-12
ipp-non-chp,60107,"Mesquite Solar 3, LLC",60308,CISO,California Independent System Operator,OP,33.347583,-112.936805,150,2016-12
ipp-non-chp,60177,"Solar Star Arizona XIII, LLC",60381,WALC,Western Area Power Administration - Desert Southwest Region,OP,32.0628,-109.919283,20,2016-12
ipp-non-chp,57369,"Apple, Inc",60413,SRP,Salt River Project,OP,33.053,-111.34,50,2016-11
electric-utility,803,Arizona Public Service Co,60467,AZPS,Arizona Public Service Company,OP,32.551026,-111.289232,40,2017-02
electric-utility,19728,"UNS Electric, Inc",60603,TEPC,Tucson Electric Power Company,OP,35.304528,-114.01183,4.4,2017-03
ipp-non-chp,60404,"Constellation Solar Arizona 2, LLC",60684,TEPC,Tucson Electric Power Company,OP,32.269,-110.975,1,2016-12
ipp-non-chp,60404,"Constellation Solar Arizona 2, LLC",60685,TEPC,Tucson Electric Power Company,OP,32.374,-110.974,1.5,2016-12
ipp-non-chp,60947,Tesla Inc.,60822,AZPS,Arizona Public Service Company,OP,33.243261,-111.892354,4.2,2017-12
ipp-non-chp,61785,EDP Renewables North America LLC,60827,CISO,California Independent System Operator,OP,33.34884,-112.8348,160,2020-01
electric-utility,796,Arizona Electric Pwr Coop Inc,60964,WALC,Western Area Power Administration - Desert Southwest Region,OP,32.068141,-109.890379,90,2017-10
ipp-non-chp,60633,"Iron Horse Battery Storage, LLC",60996,TEPC,Tucson Electric Power Company,OP,32.098492,-110.819119,2,2017-04
ipp-non-chp,60947,Tesla Inc.,61104,TEPC,Tucson Electric Power Company,OP,32.146142,-110.990639,1.3,2017-08
ipp-non-chp,60520,SoCore Energy LLC,61199,SRP,Salt River Project,OP,33.447225,-112.217664,1.2,2017-05
ipp-non-chp,60879,"NGI-Kayenta Solar Lessor I, LLC",61268,WALC,Western Area Power Administration - Desert Southwest Region,OP,36.771944,-110.263889,55.3,2017-05
ipp-non-chp,60886,"Gray Hawk Solar, LLC",61272,TEPC,Tucson Electric Power Company,OP,35.3635,-113.8978,55,2018-06
ipp-non-chp,61295,"Pinal Central Energy Center, LLC",61678,SRP,Salt River Project,OP,32.875697,-111.551111,20,2018-04
ipp-non-chp,60947,Tesla Inc.,62075,TEPC,Tucson Electric Power Company,OP,32.166494,-110.816669,1.1,2019-08
commercial-non-chp,62083,Arizona State University FDM,62643,AZPS,Arizona Public Service Company,OP,33.424279,-111.92822,2.4,2013-12
ipp-non-chp,61012,AES Distributed Energy,62899,SRP,Salt River Project,OP,32.84703,-111.565072,100,2020-12
electric-utility,803,Arizona Public Service Co,62965,AZPS,Arizona Public Service Company,OP,33.145593,-112.659124,10,2015-07
ipp-non-chp,63115,"AZ Solar 1, LLC",63349,WALC,Western Area Power Administration - Desert Southwest Region,OP,33.776667,-113.656111,32.5,2019-12
ipp-non-chp,60584,Onyx Asset Services Group,63531,TEPC,Tucson Electric Power Company,OP,32.343491,-111.02786,1.3,2019-04
ipp-non-chp,60404,"Constellation Solar Arizona 2, LLC",63554,WALC,Western Area Power Administration - Desert Southwest Region,OP,34.9843,-114.5565,10,2016-10
commercial-non-chp,57369,"Apple, Inc",64404,SRP,Salt River Project,OP,33.347,-111.602,4.6,2020-03
ipp-non-chp,61944,Goldman Sachs Renewable Power Group,64580,TEPC,Tucson Electric Power Company,OP,32.24817,-111.2611,3,2013-12
electric-utility,16534,Sacramento Municipal Util Dist,529,BANC,Balancing Authority of Northern California,OP,38.340015,-121.113861,2,1984-08
ipp-non-chp,60246,"Sunray Energy 2, LLC",10437,CISO,California Independent System Operator,OP,34.863356,-116.827627,20,2017-06
ipp-non-chp,60247,Sunray Energy 3 LLC,10438,CISO,California Independent System Operator,OP,34.863356,-116.827627,13.8,2017-06
commercial-chp,16625,San Diego State University,50061,CISO,California Independent System Operator,OP,32.778225,-117.070114,0.8,2009-09
ipp-non-chp,55961,CalRenew-1 LLC,56768,CISO,California Independent System Operator,OP,36.7575,-120.3658,5,2010-04
ipp-non-chp,56028,MMA Fresno Power LP,56813,CISO,California Independent System Operator,OP,36.809841,-119.741665,1,2007-12
ipp-non-chp,56027,MMA LA Power LP,56814,CISO,California Independent System Operator,OP,34.040278,-118.148056,1,2008-05
ipp-non-chp,56105,MMA WBF Power LP,56862,CISO,California Independent System Operator,OP,34.5644,-117.6933,1.2,2008-11
ipp-non-chp,57170,"EDF Renewable Asset Holdings, Inc.",56875,BANC,Balancing Authority of Northern California,OP,38.44979,-121.16469,1,2008-08
commercial-non-chp,56113,MMA GDC Power LP,56909,CISO,California Independent System Operator,OP,36.7839,-119.7094,1.2,2008-10
ipp-non-chp,56167,"Imperial Valley Solar, LLC",56917,CISO,California Independent System Operator,OP,32.671099,-115.587265,199.9,2013-11
ipp-non-chp,59399,NRG Solar Blythe,56939,CISO,California Independent System Operator,OP,33.5917,-114.7444,21,2009-12
electric-utility,17609,Southern California Edison Co,56996,CISO,California Independent System Operator,OP,33.985244,-117.700826,1,2009-12
ipp-non-chp,56294,SunE WG113 Moreno Valley LLC,57004,CISO,California Independent System Operator,OP,33.8672,-117.23,1,2007-09
ipp-non-chp,56431,SunE U6 Holdings LLC,57005,CISO,California Independent System Operator,OP,38.40008,-121.96366,1,2008-11
ipp-non-chp,56296,SunE WG45 Woodland LLC,57006,CISO,California Independent System Operator,OP,38.674894,-121.713362,1,2007-08
ipp-non-chp,56297,SunE CPA CDC2 LLC,57007,CISO,California Independent System Operator,OP,33.567268,-114.917979,1,2008-05
ipp-non-chp,56431,SunE U6 Holdings LLC,57008,CISO,California Independent System Operator,OP,34.2089,-119.13,1,2009-10
ipp-non-chp,56300,SunE KHL55 San Bernardino LLC,57009,CISO,California Independent System Operator,OP,34.094695,-117.266831,1,2007-11
ipp-non-chp,56434,SunE M5 Holdings LLC,57010,CISO,California Independent System Operator,OP,38.232108,-122.092706,1,2008-12
ipp-non-chp,56302,SunE CPA CDC1 LLC,57011,CISO,California Independent System Operator,OP,33.565329,-114.903629,1,2006-06
ipp-non-chp,56434,SunE M5 Holdings LLC,57012,CISO,California Independent System Operator,OP,34.5975,-117.2,1,2009-03
electric-utility,14328,Pacific Gas & Electric Co.,57041,CISO,California Independent System Operator,OP,38.4106,-121.9264,2,2009-12
electric-utility,17609,Southern California Edison Co,57217,CISO,California Independent System Operator,OP,34.094279,-117.400113,1,2011-03
electric-utility,17609,Southern California Edison Co,57219,CISO,California Independent System Operator,OP,34.086276,-117.230571,2.5,2012-11
electric-utility,17609,Southern California Edison Co,57220,CISO,California Independent System Operator,OP,34.041389,-117.573055,2,2011-08
electric-utility,17609,Southern California Edison Co,57221,CISO,California Independent System Operator,OP,34.086111,-117.2275,2.5,2012-11
electric-utility,17609,Southern California Edison Co,57222,CISO,California Independent System Operator,OP,34.041944,-117.565,2,2011-08
electric-utility,17609,Southern California Edison Co,57223,CISO,California Independent System Operator,OP,34.042778,-117.571666,1,2011-08
electric-utility,17609,Southern California Edison Co,57224,CISO,California Independent System Operator,OP,34.075,-117.516944,1.5,2013-01
electric-utility,17609,Southern California Edison Co,57225,CISO,California Independent System Operator,OP,34.075833,-117.241388,3.5,2015-02
electric-utility,17609,Southern California Edison Co,57226,CISO,California Independent System Operator,OP,34.042222,-117.561666,0.5,2011-08
electric-utility,17609,Southern California Edison Co,57227,CISO,California Independent System Operator,OP,34.083499,-117.23557,3.5,2015-02
electric-utility,17609,Southern California Edison Co,57229,CISO,California Independent System Operator,OP,34.079167,-117.516666,3.5,2013-01
electric-utility,17609,Southern California Edison Co,57230,CISO,California Independent System Operator,OP,34.085556,-117.233611,1.5,2015-02
electric-utility,17609,Southern California Edison Co,57231,CISO,California Independent System Operator,OP,34.072778,-117.503333,3.5,2015-01
electric-utility,17609,Southern California Edison Co,57232,CISO,California Independent System Operator,OP,34.083333,-117.516388,1.5,2012-11
electric-utility,17609,Southern California Edison Co,57236,CISO,California Independent System Operator,OP,34.080833,-117.520277,2.5,2013-01
electric-utility,17609,Southern California Edison Co,57237,CISO,California Independent System Operator,OP,34.08,-117.2114,2,2011-08
electric-utility,17609,Southern California Edison Co,57245,CISO,California Independent System Operator,OP,34.131214,-117.425324,6,2015-02
electric-utility,17609,Southern California Edison Co,57246,CISO,California Independent System Operator,OP,34.131111,-117.421666,2,2015-02
electric-utility,17609,Southern California Edison Co,57247,CISO,California Independent System Operator,OP,34.094167,-117.274166,3.5,2015-02
commercial-non-chp,56618,Victor Valley Community College District,57254,CISO,California Independent System Operator,OP,34.48017,-117.257938,1,2010-06
ipp-non-chp,59397,NRG Solar Alpine,57295,CISO,California Independent System Operator,OP,34.7892,-118.5047,66,2013-02
electric-utility,11208,Los Angeles Department of Water & Power,57305,LDWP,Los Angeles Department of Water and Power,OP,34.550833,-117.435277,10,2012-06
electric-utility,11208,Los Angeles Department of Water & Power,57306,LDWP,Los Angeles Department of Water and Power,OP,35.229635,-118.1957,8.5,2013-03
electric-utility,11208,Los Angeles Department of Water & Power,57308,LDWP,Los Angeles Department of Water and Power,OP,34.319722,-118.430833,2.2,2017-04
commercial-non-chp,11208,Los Angeles Department of Water & Power,57309,LDWP,Los Angeles Department of Water and Power,OP,33.7331,-118.27722,1.1,2010-09
commercial-non-chp,57320,Konoike Pacific,57310,LDWP,Los Angeles Department of Water and Power,OP,33.794283,-118.241405,1.3,2011-03
commercial-non-chp,11208,Los Angeles Department of Water & Power,57311,LDWP,Los Angeles Department of Water and Power,OP,34.1283,-118.206903,1,2013-02
commercial-non-chp,57275,Metropolitan Transportation Authority,57313,LDWP,Los Angeles Department of Water and Power,OP,34.0578,-118.229722,1.2,2005-04
commercial-non-chp,57276,Los Angeles Community College District,57314,LDWP,Los Angeles Department of Water and Power,OP,33.783102,-118.28493,1.2,2010-10
ipp-non-chp,56769,Consolidated Edison Development Inc.,57340,CISO,California Independent System Operator,OP,36.627,-120.879,140,2018-01
ipp-non-chp,56700,Avenal Solar Holdings LLC,57359,CISO,California Independent System Operator,OP,35.989722,-120.11,6,2011-08
ipp-non-chp,56700,Avenal Solar Holdings LLC,57360,CISO,California Independent System Operator,OP,35.983056,-120.110277,20,2011-08
ipp-non-chp,56700,Avenal Solar Holdings LLC,57361,CISO,California Independent System Operator,OP,35.982778,-120.110277,19,2011-08
ipp-non-chp,56722,AV Solar Ranch 1 LLC,57378,CISO,California Independent System Operator,OP,34.780278,-118.42444,253,2014-08
commercial-non-chp,56751,Yolo County of,57422,CISO,California Independent System Operator,OP,38.659722,-121.7294,1,2010-12
ipp-non-chp,56762,"NRG Renew Operation & Maintenance, LLC",57439,CISO,California Independent System Operator,OP,35.323739,-119.91663,249.8,2013-10
electric-utility,17609,Southern California Edison Co,57441,CISO,California Independent System Operator,OP,36.028056,-119.074722,5,2012-11
ipp-non-chp,57271,NRG Solar Borrego I,57455,CISO,California Independent System Operator,OP,33.298889,-116.35083,26,2013-02
ipp-non-chp,56819,CSOLAR IV South LLC,57490,CISO,California Independent System Operator,OP,32.663289,-115.658284,128.9,2013-11
ipp-non-chp,57260,CSOLAR IV West LLC,57491,CISO,California Independent System Operator,OP,32.772225,-115.779311,148.7,2016-04
electric-utility,14328,Pacific Gas & Electric Co.,57497,CISO,California Independent System Operator,OP,36.531389,-120.106944,20,2011-09
electric-utility,14328,Pacific Gas & Electric Co.,57498,CISO,California Independent System Operator,OP,36.400278,-120.103333,15,2011-09
electric-utility,14328,Pacific Gas & Electric Co.,57499,CISO,California Independent System Operator,OP,36.378726,-120.124898,15,2011-08
ipp-non-chp,56827,FRV SI Transport Solar LP,57506,CISO,California Independent System Operator,OP,38.4869,-121.3911,1,2010-08
electric-utility,14328,Pacific Gas & Electric Co.,57521,CISO,California Independent System Operator,OP,36.530278,-120.316111,10,2012-06
electric-utility,14328,Pacific Gas & Electric Co.,57522,CISO,California Independent System Operator,OP,36.425085,-120.343543,20,2012-06
electric-utility,14328,Pacific Gas & Electric Co.,57523,CISO,California Independent System Operator,OP,36.181389,-120.030555,20,2012-06
electric-utility,17609,Southern California Edison Co,57534,CISO,California Independent System Operator,OP,34.031667,-117.571944,1.5,2015-02
electric-utility,17609,Southern California Edison Co,57535,CISO,California Independent System Operator,OP,34.0325,-117.569166,1,2015-01
electric-utility,17609,Southern California Edison Co,57540,CISO,California Independent System Operator,OP,33.839167,-117.220833,8,2015-02
ipp-non-chp,56902,"RE SFCity1, LP",57559,CISO,California Independent System Operator,OP,37.750894,-122.481758,4.5,2010-09
electric-utility,17573,South San Joaquin Irr District,57579,CISO,California Independent System Operator,OP,37.8583,-120.8917,1.3,2008-05
ipp-chp,56917,Broadridge Customer Communications,57580,CISO,California Independent System Operator,OP,38.6183,-121.0564,0.8,2011-12
ipp-non-chp,56980,"Regulus Solar, LLC",57650,CISO,California Independent System Operator,OP,35.3,-118.851944,60,2014-11
ipp-non-chp,17650,Southern Power Co,57651,CISO,California Independent System Operator,OP,35.102778,-118.954444,20,2014-05
commercial-non-chp,56982,Kern Community College District,57655,CISO,California Independent System Operator,OP,35.411817,-118.96864,1.1,2010-11
ipp-non-chp,56984,"Temescal Canyon RV, LLC",57656,CISO,California Independent System Operator,OP,33.826389,-117.511667,1.5,2011-05
ipp-non-chp,56995,"Sacramento PV Energy, LLC",57669,BANC,Balancing Authority of Northern California,OP,38.364722,-121.41278,17,2011-12
ipp-non-chp,56995,"Sacramento PV Energy, LLC",57670,BANC,Balancing Authority of Northern California,OP,38.253056,-121.278888,2.9,2011-12
ipp-non-chp,56995,"Sacramento PV Energy, LLC",57671,BANC,Balancing Authority of Northern California,OP,38.237778,-121.3375,2.9,2011-12
ipp-non-chp,57006,"SunE GIL1, LLC",57682,CISO,California Independent System Operator,OP,36.9408,-120.1572,1.2,2009-09
ipp-non-chp,57007,"SunE WF3-ST Holdings, LLC",57683,CISO,California Independent System Operator,OP,33.881667,-118.0175,1.1,2009-03
ipp-non-chp,59874,Topaz Solar Farms LLC,57695,CISO,California Independent System Operator,OP,35.405556,-120.068611,585.9,2013-04
ipp-non-chp,60281,"Altus Power America Management, LLC",57697,CISO,California Independent System Operator,OP,38.613508,-121.162879,3,2009-12
ipp-non-chp,60281,"Altus Power America Management, LLC",57698,CISO,California Independent System Operator,OP,38.6086,-121.1703,2.7,2010-06
ipp-non-chp,57170,"EDF Renewable Asset Holdings, Inc.",57708,CISO,California Independent System Operator,OP,34.938261,-118.334492,110,2012-12
ipp-non-chp,60025,Greenbacker Renewable Energy Corporation,57722,CISO,California Independent System Operator,OP,33.909722,-116.5625,4,2012-10
ipp-non-chp,60025,Greenbacker Renewable Energy Corporation,57743,CISO,California Independent System Operator,OP,33.924167,-116.593333,2.5,2012-04
ipp-non-chp,56995,"Sacramento PV Energy, LLC",57753,BANC,Balancing Authority of Northern California,OP,38.338868,-121.431342,1,2011-12
commercial-non-chp,57073,"Solar Star California XV, LLC",57764,CISO,California Independent System Operator,OP,35.68771,-117.68137,11.1,2012-09
commercial-non-chp,58315,SSA Solar of CA 2 LLC,57773,CISO,California Independent System Operator,OP,33.661667,-114.651667,1.2,2009-08
ipp-non-chp,57354,X-Elio North America Inc,57777,BANC,Balancing Authority of Northern California,OP,38.468611,-121.181944,3,2012-01
ipp-non-chp,57354,X-Elio North America Inc,57778,BANC,Balancing Authority of Northern California,OP,38.365053,-121.381101,5,2012-01
ipp-non-chp,57354,X-Elio North America Inc,57779,BANC,Balancing Authority of Northern California,OP,38.466111,-121.177778,3,2012-01
ipp-non-chp,57354,X-Elio North America Inc,57780,BANC,Balancing Authority of Northern California,OP,38.365053,-121.381101,5,2012-02
ipp-non-chp,57354,X-Elio North America Inc,57781,BANC,Balancing Authority of Northern California,OP,38.461944,-121.180278,3,2012-01
ipp-non-chp,57354,X-Elio North America Inc,57782,BANC,Balancing Authority of Northern California,OP,38.365053,-121.381101,5,2012-02
ipp-non-chp,57354,X-Elio North America Inc,57783,BANC,Balancing Authority of Northern California,OP,38.3475,-121.412777,5,2012-01
ipp-non-chp,57354,X-Elio North America Inc,57784,BANC,Balancing Authority of Northern California,OP,38.3475,-121.412777,5,2012-02
ipp-non-chp,57354,X-Elio North America Inc,57785,BANC,Balancing Authority of Northern California,OP,38.3475,-121.412777,5,2012-02
ipp-non-chp,57104,Golden Springs Development Company LLC,57796,CISO,California Independent System Operator,OP,33.914167,-118.053611,1.2,2012-02
ipp-non-chp,57104,Golden Springs Development Company LLC,57797,CISO,California Independent System Operator,OP,33.911944,-118.052222,1.3,2012-03
ipp-non-chp,57354,X-Elio North America Inc,57806,BANC,Balancing Authority of Northern California,OP,38.461944,-121.180278,0.4,2012-01
ipp-non-chp,57354,X-Elio North America Inc,57816,BANC,Balancing Authority of Northern California,OP,38.302594,-121.295819,5,2012-11
ipp-non-chp,57354,X-Elio North America Inc,57817,BANC,Balancing Authority of Northern California,OP,38.302594,-121.295819,5,2012-11
ipp-non-chp,57354,X-Elio North America Inc,57818,BANC,Balancing Authority of Northern California,OP,38.302594,-121.295819,5,2012-11
ipp-non-chp,57354,X-Elio North America Inc,57819,BANC,Balancing Authority of Northern California,OP,38.302594,-121.295819,5,2012-11
ipp-non-chp,57354,X-Elio North America Inc,57820,BANC,Balancing Authority of Northern California,OP,38.302594,-121.295819,5,2012-11
ipp-non-chp,57354,X-Elio North America Inc,57821,BANC,Balancing Authority of Northern California,OP,38.302594,-121.295819,5,2012-11
commercial-non-chp,58661,"Sustainable Power Group, LLC",57827,CISO,California Independent System Operator,OP,36.538056,-119.426388,1,2011-11
ipp-non-chp,57154,Heliocentric LLC,57831,CISO,California Independent System Operator,OP,34.65434,-117.971004,1.5,2012-03
ipp-non-chp,57159,L-8 Solar Project LLC,57836,CISO,California Independent System Operator,OP,34.654347,-117.973103,1.5,2012-05
ipp-non-chp,59139,SunEdison LLC,57840,CISO,California Independent System Operator,OP,32.791667,-117.095277,1.1,2011-12
ipp-non-chp,59139,SunEdison LLC,57841,CISO,California Independent System Operator,OP,33.921667,-118.124444,1.1,2011-09
ipp-non-chp,57177,SEAI Elk Grove LLC,57849,BANC,Balancing Authority of Northern California,OP,38.282021,-121.464676,3,2012-09
ipp-non-chp,57177,SEAI Elk Grove LLC,57850,BANC,Balancing Authority of Northern California,OP,38.28357,-121.461264,1,2012-09
commercial-non-chp,56918,University of California San Diego,57856,CISO,California Independent System Operator,OP,32.874379,-117.238927,1.2,2008-12
electric-utility,57194,City of Industry,57860,CISO,California Independent System Operator,OP,34.008661,-117.845603,1.5,2012-04
commercial-non-chp,57213,Castle Rock Cooling,57870,CISO,California Independent System Operator,OP,35.801111,-119.110556,1,2010-09
commercial-non-chp,11208,Los Angeles Department of Water & Power,57871,LDWP,Los Angeles Department of Water and Power,OP,34.026944,-118.224167,1,2012-03
electric-utility,14328,Pacific Gas & Electric Co.,57891,CISO,California Independent System Operator,OP,36.163889,-119.650556,20,2013-08
electric-utility,14328,Pacific Gas & Electric Co.,57892,CISO,California Independent System Operator,OP,36.176389,-120.114167,20,2013-06
commercial-non-chp,57262,Kern County Water Agency,57895,CISO,California Independent System Operator,OP,35.402778,-119.038611,1.1,2009-01
electric-utility,17609,Southern California Edison Co,57900,CISO,California Independent System Operator,OP,34.081111,-117.228056,5,2015-02
ipp-non-chp,57273,SS San Antonio West LLC,57904,CISO,California Independent System Operator,OP,33.965617,-117.659059,1.5,2012-08
ipp-non-chp,58101,Solar Star California II LLC,57933,BANC,Balancing Authority of Northern California,OP,38.516389,-121.47528,2,2012-08
ipp-non-chp,49893,Invenergy Services LLC,57959,CISO,California Independent System Operator,OP,33.27055,-116.34805,6.3,2014-11
commercial-non-chp,57345,Butte-Glenn Community College District,57970,CISO,California Independent System Operator,OP,39.648056,-121.644167,3.5,2011-07
ipp-non-chp,57354,X-Elio North America Inc,57982,CISO,California Independent System Operator,OP,35.670278,-120.566944,1.1,2010-12
ipp-non-chp,58289,"NextEra Energy Desert Sunlight 300, LLC",57993,CISO,California Independent System Operator,OP,33.823056,-115.393889,313.7,2013-11
ipp-non-chp,56769,Consolidated Edison Development Inc.,58002,CISO,California Independent System Operator,OP,35.9025,-119.442778,20,2012-12
ipp-non-chp,56769,Consolidated Edison Development Inc.,58003,CISO,California Independent System Operator,OP,35.898333,-119.435278,50,2012-12
commercial-non-chp,57389,IKEA Property Inc,58028,CISO,California Independent System Operator,OP,34.975278,-118.946944,1.5,2011-04
ipp-non-chp,57405,NLH1 Solar LLC,58034,CISO,California Independent System Operator,OP,35.647295,-119.716512,1.5,2012-11
ipp-non-chp,60898,Axium US Solar Holdings LLC,58039,CISO,California Independent System Operator,OP,37.734167,-120.995556,25,2012-12
industrial-non-chp,57435,MillerCoors Irwindale Brewery,58056,CISO,California Independent System Operator,OP,34.121667,-117.938333,2.5,2015-03
ipp-non-chp,57439,Imperial Valley Solar Company 1 LLC,58062,IID,Imperial Irrigation District,OP,33.245833,-115.496667,23,2012-06
ipp-non-chp,57354,X-Elio North America Inc,58073,CISO,California Independent System Operator,OP,34.618861,-117.939444,2,2012-05
ipp-non-chp,57354,X-Elio North America Inc,58074,CISO,California Independent System Operator,OP,34.174167,-116.152778,2,2012-06
ipp-non-chp,59622,"Ahana Renewables, LLC",58076,CISO,California Independent System Operator,OP,34.9077,-117.9206,3,2011-12
ipp-non-chp,60947,Tesla Inc.,58086,BANC,Balancing Authority of Northern California,OP,38.645119,-121.172999,1,2010-07
ipp-non-chp,57354,X-Elio North America Inc,58118,CISO,California Independent System Operator,OP,36.678611,-119.7975,1.5,2012-12
ipp-non-chp,57497,Golden State Energy LLC,58119,BANC,Balancing Authority of Northern California,OP,38.515,-121.398333,3,2010-12
ipp-non-chp,58111,RE Kansas South LLC,58148,CISO,California Independent System Operator,OP,36.226111,-119.834167,20,2013-06
ipp-non-chp,58112,TA-High Desert LLC,58149,CISO,California Independent System Operator,OP,34.708889,-118.304722,20,2013-03
commercial-chp,58104,California State University at Fullerton,58169,CISO,California Independent System Operator,OP,33.880638,-117.88656,4.3,2012-01
commercial-non-chp,58140,San Bernardino Comm College Dist,58170,CISO,California Independent System Operator,OP,34.043056,-117.098889,1.3,2012-06
ipp-non-chp,57354,X-Elio North America Inc,58202,CISO,California Independent System Operator,OP,34.51231,-117.47753,20,2013-12
ipp-non-chp,56751,Yolo County of,58204,CISO,California Independent System Operator,OP,38.500278,-121.694167,2.5,2013-07
electric-utility,14328,Pacific Gas & Electric Co.,58206,CISO,California Independent System Operator,OP,36.142222,-120.1325,10,2013-05
ipp-non-chp,56751,Yolo County of,58217,CISO,California Independent System Operator,OP,38.500278,-121.694167,2.5,2013-07
ipp-non-chp,58197,Newberry Solar 1 LLC,58226,CISO,California Independent System Operator,OP,34.853581,-116.683108,1.5,2013-12
ipp-non-chp,58198,"Highlander Solar 2, LLC",58227,CISO,California Independent System Operator,OP,34.192222,-116.090278,9,2013-06
commercial-non-chp,58661,"Sustainable Power Group, LLC",58232,CISO,California Independent System Operator,OP,33.767222,-117.0175,1,2012-09
ipp-non-chp,58211,"Highlander Solar 1, LLC",58234,CISO,California Independent System Operator,OP,34.171944,-116.1525,12,2013-06
commercial-non-chp,58661,"Sustainable Power Group, LLC",58244,CISO,California Independent System Operator,OP,33.719722,-117.009722,1,2012-09
commercial-non-chp,57276,Los Angeles Community College District,58248,LDWP,Los Angeles Department of Water and Power,OP,34.183611,-118.574722,1.9,2013-01
commercial-non-chp,59553,VA Sepulveda Ambulatory Care Center,58249,LDWP,Los Angeles Department of Water and Power,OP,34.248889,-118.483333,3.5,2014-10
commercial-non-chp,61247,"CBS Broadcasting, Inc.",58253,LDWP,Los Angeles Department of Water and Power,OP,34.075,-118.36,1.6,2013-07
ipp-non-chp,58238,Enfinity NorCal 1 FAA LLC,58261,BANC,Balancing Authority of Northern California,OP,38.559533,-121.257556,1,2012-12
ipp-non-chp,59455,"Venable Solar, LLC",58289,CISO,California Independent System Operator,OP,33.598889,-114.571667,1.5,2015-04
ipp-non-chp,59455,"Venable Solar, LLC",58290,CISO,California Independent System Operator,OP,33.597222,-114.571667,1.5,2015-04
ipp-non-chp,58269,Tulare PV II LLC,58304,CISO,California Independent System Operator,OP,36.505278,-119.540278,3.7,2013-12
ipp-non-chp,58268,Tulare PV I LLC,58306,CISO,California Independent System Operator,OP,36.2675,-119.128581,3.5,2014-02
ipp-non-chp,58268,Tulare PV I LLC,58307,CISO,California Independent System Operator,OP,36.3875,-119.255,3.5,2014-01
ipp-non-chp,58268,Tulare PV I LLC,58308,CISO,California Independent System Operator,OP,36.211944,-119.133889,4,2014-01
ipp-non-chp,58268,Tulare PV I LLC,58309,CISO,California Independent System Operator,OP,36.102778,-119.039722,3.5,2014-01
ipp-non-chp,58309,Radiance Solar LLC,58354,CISO,California Independent System Operator,OP,34.665556,-118.288056,1.5,2013-07
ipp-non-chp,58309,Radiance Solar LLC,58355,CISO,California Independent System Operator,OP,34.665556,-118.286944,1.5,2013-07
ipp-non-chp,58355,SPS Atwell Island LLC,58366,CISO,California Independent System Operator,OP,35.895,-119.510833,20.2,2013-03
ipp-non-chp,58358,Light Beam Power Co LLC,58370,CISO,California Independent System Operator,OP,39.373333,-121.684167,1,2013-03
ipp-non-chp,58358,Light Beam Power Co LLC,58371,CISO,California Independent System Operator,OP,39.373333,-121.681667,2.5,2013-04
ipp-non-chp,56769,Consolidated Edison Development Inc.,58373,CISO,California Independent System Operator,OP,35.871389,-119.4625,20,2013-07
ipp-non-chp,56769,Consolidated Edison Development Inc.,58374,CISO,California Independent System Operator,OP,36.138333,-119.573333,20,2013-08
ipp-non-chp,58363,Oakley Solar Project LLC,58376,CISO,California Independent System Operator,OP,38.001667,-121.747778,1.5,2013-06
ipp-non-chp,59873,"Solar Star California XIX, LLC",58388,CISO,California Independent System Operator,OP,34.8181,-118.4036,318,2015-06
ipp-non-chp,59872,"Solar Star California XX, LLC",58389,CISO,California Independent System Operator,OP,34.848611,-118.352778,279,2014-03
ipp-non-chp,60898,Axium US Solar Holdings LLC,58398,IID,Imperial Irrigation District,OP,32.7125,-115.540556,10.9,2014-05
ipp-non-chp,58413,Lone Valley Solar Park I LLC,58417,CISO,California Independent System Operator,OP,34.398059,-116.865517,10,2014-12
ipp-non-chp,58661,"Sustainable Power Group, LLC",58418,CISO,California Independent System Operator,OP,34.501111,-117.466667,5,2015-06
ipp-non-chp,58661,"Sustainable Power Group, LLC",58419,CISO,California Independent System Operator,OP,34.497778,-117.471111,5,2015-06
commercial-chp,58416,"California State University, Northridge",58422,LDWP,Los Angeles Department of Water and Power,OP,34.243333,-118.530556,0.6,2005-04
ipp-non-chp,58427,Centinela Solar Energy LLC,58430,CISO,California Independent System Operator,OP,32.686944,-115.647778,174.8,2013-07
ipp-non-chp,58440,CD US Solar MT 2 LLC,58445,CISO,California Independent System Operator,OP,34.655,-118.051111,2,2013-08
ipp-non-chp,58440,CD US Solar MT 2 LLC,58446,CISO,California Independent System Operator,OP,34.650556,-118.051944,1.5,2013-08
ipp-non-chp,58440,CD US Solar MT 2 LLC,58447,CISO,California Independent System Operator,OP,34.647778,-118.061111,4,2013-09
ipp-non-chp,58440,CD US Solar MT 2 LLC,58448,CISO,California Independent System Operator,OP,34.509167,-117.154444,1,2013-07
ipp-non-chp,58440,CD US Solar MT 2 LLC,58449,CISO,California Independent System Operator,OP,34.643889,-118.163056,4,2014-01
ipp-non-chp,58440,CD US Solar MT 2 LLC,58450,CISO,California Independent System Operator,OP,34.668889,-118.061389,1.5,2013-07
ipp-non-chp,58440,CD US Solar MT 2 LLC,58451,CISO,California Independent System Operator,OP,34.695278,-118.0625,1.5,2013-10
ipp-non-chp,58440,CD US Solar MT 2 LLC,58452,CISO,California Independent System Operator,OP,34.708889,-118.274167,1.5,2013-10
ipp-non-chp,58440,CD US Solar MT 2 LLC,58454,CISO,California Independent System Operator,OP,34.600833,-117.642222,2,2013-08
ipp-non-chp,58451,"McCoy Solar, LLC",58462,CISO,California Independent System Operator,OP,33.694722,-114.739722,270.6,2016-03
ipp-non-chp,17650,Southern Power Co,58467,CISO,California Independent System Operator,OP,32.753333,-115.726389,147.4,2013-10
ipp-non-chp,57354,X-Elio North America Inc,58498,CISO,California Independent System Operator,OP,34.9,-118.246944,20,2014-01
ipp-non-chp,57354,X-Elio North America Inc,58499,CISO,California Independent System Operator,OP,34.900278,-118.238333,20,2014-01
ipp-non-chp,57354,X-Elio North America Inc,58500,CISO,California Independent System Operator,OP,35.00745,-118.16451,5,2013-12
ipp-non-chp,57354,X-Elio North America Inc,58502,CISO,California Independent System Operator,OP,35.024722,-118.164167,10,2014-01
ipp-non-chp,58486,Chuckawalla Solar LLC,58506,CISO,California Independent System Operator,OP,33.568333,-114.918056,4,2012-06
ipp-non-chp,58135,Ecos Energy LLC,58508,CISO,California Independent System Operator,OP,38.136389,-121.148889,1.5,2014-02
ipp-non-chp,58135,Ecos Energy LLC,58509,CISO,California Independent System Operator,OP,35.55795,-120.68287,1.5,2014-04
ipp-non-chp,58135,Ecos Energy LLC,58510,CISO,California Independent System Operator,OP,38.12139,-121.14122,1,2014-04
ipp-non-chp,58490,Ironwood Solar LLC,58513,CISO,California Independent System Operator,OP,33.565,-114.918056,4,2012-04
ipp-non-chp,57365,Consolidated Edison Solutions Inc,58514,CISO,California Independent System Operator,OP,33.923056,-116.53,2.3,2013-12
ipp-non-chp,59622,"Ahana Renewables, LLC",58522,CISO,California Independent System Operator,OP,36.941111,-120.046667,1,2011-10
ipp-chp,58500,City of Hayward,58525,CISO,California Independent System Operator,OP,37.633526,-122.139717,1,2010-11
industrial-non-chp,58501,Five Crowns Inc,58527,IID,Imperial Irrigation District,OP,32.967222,-115.5325,1,2011-12
ipp-non-chp,58503,Garnet Solar Generation Station I LLC,58528,CISO,California Independent System Operator,OP,33.8906,-116.5431,4,2014-12
ipp-non-chp,58290,"NextEra Energy Desert Sunlight 250, LLC",58542,CISO,California Independent System Operator,OP,33.8055,-115.3947,249.7,2013-12
ipp-non-chp,58518,NRG Solar Community 1 LLC,58545,IID,Imperial Irrigation District,OP,32.982778,-115.481944,5.7,2014-06
ipp-non-chp,58537,Fresh Air Energy IV LLC,58578,CISO,California Independent System Operator,OP,37.889753,-120.528723,1.5,2013-12
ipp-non-chp,58540,California PV Energy LLC,58581,CISO,California Independent System Operator,OP,34.043889,-117.531111,1,2013-12
ipp-non-chp,58540,California PV Energy LLC,58582,CISO,California Independent System Operator,OP,34.05,-117.596111,1.5,2013-12
industrial-chp,58544,Sierra Nevada Brewing Co,58585,CISO,California Independent System Operator,OP,39.724167,-121.815278,1.7,2007-09
ipp-non-chp,58546,Cascade Solar LLC,58590,CISO,California Independent System Operator,OP,34.157222,-116.234444,18.5,2014-01
ipp-non-chp,17650,Southern Power Co,58592,CISO,California Independent System Operator,OP,33.08,-115.47,160.5,2014-11
ipp-non-chp,58661,"Sustainable Power Group, LLC",58609,CISO,California Independent System Operator,OP,34.553056,-117.456944,1.5,2013-12
ipp-non-chp,58661,"Sustainable Power Group, LLC",58610,CISO,California Independent System Operator,OP,34.551111,-117.191111,1.5,2013-12
ipp-non-chp,58661,"Sustainable Power Group, LLC",58611,CISO,California Independent System Operator,OP,34.496944,-117.145,1.5,2013-12
ipp-non-chp,58661,"Sustainable Power Group, LLC",58612,CISO,California Independent System Operator,OP,34.545,-117.191944,1.5,2013-12
ipp-non-chp,58568,"Westlands Solar Farms, LLC",58616,CISO,California Independent System Operator,OP,36.138056,-120.075833,18,2014-02
ipp-non-chp,58575,"Sol Orchard Imperial 1, LLC",58621,IID,Imperial Irrigation District,OP,32.803333,-115.546389,20,2013-10
ipp-chp,58549,County of Alameda GSA,58625,CISO,California Independent System Operator,OP,37.719167,-121.886944,2.3,2016-12
ipp-non-chp,58661,"Sustainable Power Group, LLC",58626,CISO,California Independent System Operator,OP,34.681667,-118.324722,20,2014-11
ipp-non-chp,58661,"Sustainable Power Group, LLC",58627,CISO,California Independent System Operator,OP,34.688889,-118.320278,10,2016-12
ipp-non-chp,60947,Tesla Inc.,58633,CISO,California Independent System Operator,OP,36.721111,-121.787778,1,2010-12
ipp-non-chp,60947,Tesla Inc.,58634,CISO,California Independent System Operator,OP,34.695833,-118.058889,1,2011-12
ipp-non-chp,60947,Tesla Inc.,58636,BANC,Balancing Authority of Northern California,OP,38.643611,-121.416389,1,2013-02
ipp-non-chp,58593,Sequoia PV 1 LLC,58642,CISO,California Independent System Operator,OP,36.2,-119.42,3,2014-01
commercial-non-chp,58622,Costco Wholesale,58698,CISO,California Independent System Operator,OP,34.013056,-117.5375,3,2011-11
ipp-non-chp,17650,Southern Power Co,58711,CISO,California Independent System Operator,OP,35.62,-119.85,32,2015-04
ipp-non-chp,17650,Southern Power Co,58713,CISO,California Independent System Operator,OP,36.73,-120.41,62.5,2015-06
ipp-non-chp,58654,Orion Solar I LLC,58718,CISO,California Independent System Operator,OP,35.150694,-118.875,12,2014-04
ipp-non-chp,58655,"Orion Solar II, LLC",58721,CISO,California Independent System Operator,OP,35.150694,-118.875278,8,2014-06
commercial-non-chp,58661,"Sustainable Power Group, LLC",58748,CISO,California Independent System Operator,OP,38.300556,-121.966389,1,2013-08
ipp-non-chp,58661,"Sustainable Power Group, LLC",58750,CISO,California Independent System Operator,OP,34.716944,-118.289444,5,2014-11
ipp-non-chp,58661,"Sustainable Power Group, LLC",58751,CISO,California Independent System Operator,OP,34.713333,-118.289444,1.5,2014-05
ipp-non-chp,58661,"Sustainable Power Group, LLC",58752,CISO,California Independent System Operator,OP,34.713333,-118.289444,1.5,2014-05
ipp-non-chp,58661,"Sustainable Power Group, LLC",58753,CISO,California Independent System Operator,OP,34.723056,-118.289722,1.5,2014-06
ipp-non-chp,58661,"Sustainable Power Group, LLC",58754,CISO,California Independent System Operator,OP,34.723056,-118.289722,1.5,2014-06
ipp-non-chp,58661,"Sustainable Power Group, LLC",58755,CISO,California Independent System Operator,OP,34.723056,-118.289722,1.5,2014-06
ipp-non-chp,58661,"Sustainable Power Group, LLC",58756,CISO,California Independent System Operator,OP,34.723056,-118.289722,1,2014-07
ipp-non-chp,58661,"Sustainable Power Group, LLC",58757,CISO,California Independent System Operator,OP,34.723056,-118.289722,6.5,2014-12
ipp-non-chp,58661,"Sustainable Power Group, LLC",58761,CISO,California Independent System Operator,OP,34.582222,-117.341667,2,2014-05
ipp-non-chp,58661,"Sustainable Power Group, LLC",58762,CISO,California Independent System Operator,OP,34.583333,-117.340278,2,2014-05
ipp-non-chp,58661,"Sustainable Power Group, LLC",58763,CISO,California Independent System Operator,OP,34.584444,-117.341389,1.5,2014-11
ipp-non-chp,58696,Ignite Solar Holdings LLC,58814,CISO,California Independent System Operator,OP,41.031389,-121.4225,3,2014-03
ipp-non-chp,58661,"Sustainable Power Group, LLC",58831,CISO,California Independent System Operator,OP,35.321944,-118.812778,16.6,2015-10
ipp-non-chp,58759,Perpetual Energy Systems,58889,CISO,California Independent System Operator,OP,38.761389,-122.975278,1,2009-02
ipp-non-chp,58759,Perpetual Energy Systems,58890,CISO,California Independent System Operator,OP,38.510833,-122.479722,1.2,2009-01
ipp-non-chp,58775,Sol Orchard San Diego 22 LLC,58906,CISO,California Independent System Operator,OP,33.234167,-117.001667,2.5,2013-12
ipp-non-chp,58776,Sol Orchard San Diego 23 LLC,58907,CISO,California Independent System Operator,OP,33.234167,-117.001667,5,2013-12
ipp-non-chp,58786,Sol Orchard San Diego 20 LLC,58909,CISO,California Independent System Operator,OP,33.012222,-116.875,2,2013-12
ipp-non-chp,58787,Sol Orchard San Diego 21 LLC,58911,CISO,California Independent System Operator,OP,33.012222,-116.875,5,2013-12
ipp-non-chp,57104,Golden Springs Development Company LLC,58912,CISO,California Independent System Operator,OP,33.910833,-118.044444,1.8,2015-03
ipp-non-chp,57104,Golden Springs Development Company LLC,58913,CISO,California Independent System Operator,OP,33.910833,-118.044444,1.5,2015-03
ipp-non-chp,61315,Solarenewal LLC,58918,CISO,California Independent System Operator,OP,36.67,-119.415833,1.2,2014-02
ipp-non-chp,61315,Solarenewal LLC,58919,CISO,California Independent System Operator,OP,39.291667,-121.669722,1.3,2014-04
ipp-non-chp,61315,Solarenewal LLC,58920,CISO,California Independent System Operator,OP,37.352222,-120.506944,1.5,2014-04
ipp-non-chp,58812,GLT Cloverdale Solar LLC,58949,CISO,California Independent System Operator,OP,38.773056,-123.017778,1.5,2014-06
ipp-non-chp,60947,Tesla Inc.,58954,BANC,Balancing Authority of Northern California,OP,38.643611,-121.163889,1,2012-10
ipp-non-chp,60947,Tesla Inc.,58963,CISO,California Independent System Operator,OP,34.136111,-118.701944,1,2014-02
ipp-non-chp,56769,Consolidated Edison Development Inc.,58973,CISO,California Independent System Operator,OP,35.874722,-119.046111,19.8,2014-09
ipp-non-chp,17650,Southern Power Co,58975,CISO,California Independent System Operator,OP,36.218806,-119.805833,102,2016-08
ipp-non-chp,58468,Dominion Renewable Energy,58983,CISO,California Independent System Operator,OP,35.026667,-118.185556,45,2014-12
ipp-non-chp,58468,Dominion Renewable Energy,58984,CISO,California Independent System Operator,OP,36.6175,-120.290833,19,2014-12
ipp-non-chp,58468,Dominion Renewable Energy,58985,CISO,California Independent System Operator,OP,36.247778,-119.833889,20,2014-12
ipp-non-chp,58468,Dominion Renewable Energy,58986,CISO,California Independent System Operator,OP,35.223333,-119.088889,20,2014-12
ipp-non-chp,58468,Dominion Renewable Energy,58990,CISO,California Independent System Operator,OP,35.026667,-118.185556,15,2014-12
ipp-non-chp,58468,Dominion Renewable Energy,58991,CISO,California Independent System Operator,OP,36.226111,-119.905278,20,2014-12
ipp-non-chp,58661,"Sustainable Power Group, LLC",59008,CISO,California Independent System Operator,OP,35.323056,-118.821389,15,2015-12
ipp-non-chp,58661,"Sustainable Power Group, LLC",59009,CISO,California Independent System Operator,OP,35.325278,-118.878611,27,2015-12
ipp-non-chp,57130,Janssen Pharmaceutical Co,59058,CISO,California Independent System Operator,OP,38.399444,-121.960278,1,2007-09
ipp-non-chp,58468,Dominion Renewable Energy,59086,CISO,California Independent System Operator,OP,35.593611,-119.58,12,2015-05
ipp-non-chp,58468,Dominion Renewable Energy,59087,CISO,California Independent System Operator,OP,36.134444,-119.554444,12,2015-05
ipp-non-chp,17650,Southern Power Co,59088,IID,Imperial Irrigation District,OP,33.165833,-115.532222,20,2016-02
ipp-non-chp,60947,Tesla Inc.,59094,CISO,California Independent System Operator,OP,34.708333,-118.130556,1.5,2014-06
ipp-non-chp,60947,Tesla Inc.,59095,CISO,California Independent System Operator,OP,34.708333,-118.130556,1,2014-06
ipp-non-chp,60947,Tesla Inc.,59096,CISO,California Independent System Operator,OP,34.708333,-118.130556,1,2014-06
ipp-non-chp,60947,Tesla Inc.,59098,CISO,California Independent System Operator,OP,34.700278,-118.123611,1,2014-06
ipp-non-chp,60947,Tesla Inc.,59099,CISO,California Independent System Operator,OP,34.700278,-118.123611,1,2014-06
ipp-non-chp,58944,"Enerparc CA 1, LLC",59122,CISO,California Independent System Operator,OP,36.831667,-121.404167,1.5,2014-06
ipp-non-chp,59622,"Ahana Renewables, LLC",59129,CISO,California Independent System Operator,OP,37.969722,-121.719444,1.1,2013-08
ipp-non-chp,59622,"Ahana Renewables, LLC",59130,CISO,California Independent System Operator,OP,37.921944,-121.755556,1.3,2013-09
ipp-non-chp,59622,"Ahana Renewables, LLC",59132,CISO,California Independent System Operator,OP,34.9325,-117.907222,1.1,2012-02
ipp-non-chp,59622,"Ahana Renewables, LLC",59133,CISO,California Independent System Operator,OP,34.917222,-117.900278,1.1,2012-02
ipp-non-chp,59622,"Ahana Renewables, LLC",59138,CISO,California Independent System Operator,OP,32.906111,-117.121389,1.1,2011-02
ipp-non-chp,59622,"Ahana Renewables, LLC",59139,CISO,California Independent System Operator,OP,33.21,-117.170556,1.1,2011-05
ipp-non-chp,58968,RE Mustang LLC,59150,CISO,California Independent System Operator,OP,36.221667,-119.903056,100,2016-08
ipp-non-chp,58976,"PsomasFMG Lancaster Solar Crest, LLC",59167,CISO,California Independent System Operator,OP,34.715,-118.095,1.5,2014-11
ipp-non-chp,58976,"PsomasFMG Lancaster Solar Crest, LLC",59169,CISO,California Independent System Operator,OP,34.710556,-118.166111,1.5,2014-11
ipp-non-chp,59139,SunEdison LLC,59182,CISO,California Independent System Operator,OP,34.435,-117.378056,1.5,2014-08
ipp-non-chp,58468,Dominion Renewable Energy,59183,CISO,California Independent System Operator,OP,36.138056,-119.564722,20,2014-12
ipp-non-chp,58593,Sequoia PV 1 LLC,59203,CISO,California Independent System Operator,OP,36.19,-119.12,4.5,2014-07
ipp-non-chp,59004,Sequoia PV 3 LLC,59219,CISO,California Independent System Operator,OP,36.05,-119.02,3,2014-07
ipp-non-chp,59041,Lone Valley Solar Park II LLC,59237,CISO,California Independent System Operator,OP,34.408333,-116.8625,20,2014-12
ipp-non-chp,60605,"Rio Bravo Solar I, LLC",59249,CISO,California Independent System Operator,OP,35.416111,-119.6825,20,2016-12
ipp-non-chp,60606,"Rio Bravo Solar II, LLC",59250,CISO,California Independent System Operator,OP,35.4225,-119.629167,20,2016-12
ipp-non-chp,60607,"Wildwood Solar II, LLC",59253,CISO,California Independent System Operator,OP,35.63,-119.573889,15,2017-01
ipp-non-chp,58661,"Sustainable Power Group, LLC",59262,CISO,California Independent System Operator,OP,34.599444,-117.932778,5,2014-12
ipp-non-chp,59089,Merced Solar LLC,59265,CISO,California Independent System Operator,OP,37.267778,-120.484444,1.5,2014-12
ipp-non-chp,59090,Mission Solar LLC,59267,CISO,California Independent System Operator,OP,37.267778,-120.4825,1.5,2014-12
ipp-non-chp,59091,Hollister Solar LLC,59268,CISO,California Independent System Operator,OP,36.8625,-121.428889,1.5,2014-12
ipp-non-chp,58661,"Sustainable Power Group, LLC",59269,CISO,California Independent System Operator,OP,34.512778,-117.387222,1.5,2014-11
ipp-non-chp,58661,"Sustainable Power Group, LLC",59270,CISO,California Independent System Operator,OP,34.511389,-117.387222,1.5,2014-11
ipp-non-chp,58661,"Sustainable Power Group, LLC",59271,CISO,California Independent System Operator,OP,34.509444,-117.387222,1.5,2014-11
ipp-non-chp,58661,"Sustainable Power Group, LLC",59272,CISO,California Independent System Operator,OP,34.508056,-117.387222,1.5,2014-11
ipp-non-chp,58661,"Sustainable Power Group, LLC",59273,CISO,California Independent System Operator,OP,34.613056,-117.938889,10,2015-08
ipp-non-chp,58540,California PV Energy LLC,59283,CISO,California Independent System Operator,OP,38.001111,-121.703889,1,2014-08
ipp-non-chp,59104,"Sequoia PV 2, LLC",59300,CISO,California Independent System Operator,OP,36.306667,-119.629167,3,2014-08
ipp-non-chp,60865,"CD Global Solar Holdings, LLC",59308,LDWP,Los Angeles Department of Water and Power,OP,35.248889,-118.034444,37.8,2017-12
ipp-non-chp,60865,"CD Global Solar Holdings, LLC",59309,LDWP,Los Angeles Department of Water and Power,OP,35.265833,-117.999167,47.3,2017-12
ipp-non-chp,58661,"Sustainable Power Group, LLC",59315,LDWP,Los Angeles Department of Water and Power,OP,35.269444,-118.014444,56,2017-04
ipp-non-chp,58661,"Sustainable Power Group, LLC",59316,LDWP,Los Angeles Department of Water and Power,OP,35.253056,-118.014722,56,2016-12
ipp-non-chp,58661,"Sustainable Power Group, LLC",59317,LDWP,Los Angeles Department of Water and Power,OP,35.253611,-118.026944,50,2016-12
ipp-non-chp,59121,"Pumpjack Solar I, LLC",59322,CISO,California Independent System Operator,OP,35.305556,-119.6225,20,2015-01
ipp-non-chp,57081,"WGL Energy Systems, Inc",59323,BANC,Balancing Authority of Northern California,OP,38.587222,-121.457778,1.5,2014-08
ipp-non-chp,58468,Dominion Renewable Energy,59334,CISO,California Independent System Operator,OP,34.812222,-118.352778,18,2015-08
ipp-non-chp,59138,"SunPower Corporation, Systems",59339,CISO,California Independent System Operator,OP,37.130278,-121.052222,108,2015-11
ipp-non-chp,59139,SunEdison LLC,59359,CISO,California Independent System Operator,OP,34.473889,-117.562778,1.5,2014-10
ipp-non-chp,59139,SunEdison LLC,59360,CISO,California Independent System Operator,OP,34.471389,-117.562222,1,2014-10
ipp-non-chp,59158,"Wildwood Solar I, LLC",59380,CISO,California Independent System Operator,OP,35.615833,-119.578333,19.5,2015-02
commercial-non-chp,59173,City of Tulare Water Pollution Control,59395,CISO,California Independent System Operator,OP,36.185,-119.375,1.1,2011-02
ipp-non-chp,59174,"CD US Solar MT3, LLC",59397,CISO,California Independent System Operator,OS,34.762222,-117.338889,1.5,2014-12
ipp-non-chp,59174,"CD US Solar MT3, LLC",59398,CISO,California Independent System Operator,OS,34.762222,-117.338889,1.5,2014-12
ipp-non-chp,59174,"CD US Solar MT3, LLC",59399,CISO,California Independent System Operator,OS,34.762222,-117.338889,1.5,2014-12
ipp-non-chp,59176,Diamond Valley Solar LLC,59405,CISO,California Independent System Operator,OP,33.713056,-117.0725,1.3,2015-01
ipp-non-chp,59183,Shafter Solar LLC,59408,CISO,California Independent System Operator,OP,35.393333,-119.127778,20,2015-05
ipp-non-chp,59185,"CD US Solar PO 3, LLC",59409,CISO,California Independent System Operator,OP,34.768333,-117.323611,1,2014-12
ipp-non-chp,59185,"CD US Solar PO 3, LLC",59410,CISO,California Independent System Operator,OP,34.766389,-117.323611,1.5,2014-12
ipp-non-chp,59185,"CD US Solar PO 3, LLC",59411,CISO,California Independent System Operator,OP,34.765,-117.323611,1.5,2014-12
ipp-non-chp,59050,Algonquin Power Co,59412,CISO,California Independent System Operator,OP,35.126111,-119.243333,20,2015-05
ipp-non-chp,56769,Consolidated Edison Development Inc.,59413,CISO,California Independent System Operator,OP,36.141944,-119.581667,19.8,2015-05
ipp-non-chp,56769,Consolidated Edison Development Inc.,59414,CISO,California Independent System Operator,OP,35.815,-119.459722,20,2015-05
electric-utility,59187,Anaheim Public Utilities,59416,CISO,California Independent System Operator,OP,33.8025,-117.919722,2.1,2014-08
ipp-non-chp,59139,SunEdison LLC,59421,CISO,California Independent System Operator,OP,34.413056,-117.470833,1.5,2014-11
ipp-non-chp,59139,SunEdison LLC,59422,CISO,California Independent System Operator,OP,34.4175,-117.469722,1.5,2014-11
ipp-non-chp,59139,SunEdison LLC,59423,CISO,California Independent System Operator,OP,34.415278,-117.47,1.5,2014-11
ipp-non-chp,58661,"Sustainable Power Group, LLC",59431,CISO,California Independent System Operator,OP,34.703611,-118.334167,20,2015-11
ipp-non-chp,59212,"Adelanto Solar II, LLC",59440,CISO,California Independent System Operator,OP,34.557222,-117.3775,7,2015-07
ipp-non-chp,59211,"Adelanto Solar, LLC",59441,CISO,California Independent System Operator,OP,34.557222,-117.3775,20,2015-09
ipp-non-chp,58468,Dominion Renewable Energy,59443,CISO,California Independent System Operator,OP,34.689167,-118.324722,20,2014-11
ipp-non-chp,58468,Dominion Renewable Energy,59469,CISO,California Independent System Operator,OP,34.682222,-117.3475,20,2015-05
industrial-non-chp,57369,"Apple, Inc",59473,CISO,California Independent System Operator,OP,37.33,-122.01,14.4,2017-06
ipp-non-chp,59257,"Giffen Solar Park, LLC",59522,CISO,California Independent System Operator,OP,36.544722,-120.316111,20,2017-06
ipp-non-chp,59258,"Five Points Solar Park, LLC",59523,CISO,California Independent System Operator,OP,36.386944,-120.236667,60,2016-09
ipp-non-chp,56769,Consolidated Edison Development Inc.,59524,CISO,California Independent System Operator,OP,35.612,-119.845,20,2019-01
ipp-non-chp,59260,Wright Solar Park LLC,59525,CISO,California Independent System Operator,OP,37.009444,-120.957222,200,2019-12
ipp-non-chp,59262,"NRG Solar Oasis, LLC",59528,CISO,California Independent System Operator,OP,34.648889,-118.076667,20,2016-01
ipp-non-chp,59272,"41MB 8me, LLC",59531,CISO,California Independent System Operator,OP,36.941111,-119.96,50,2020-06
ipp-non-chp,59273,"62SK 8me, LLC",59532,LDWP,Los Angeles Department of Water and Power,OP,35.249167,-117.955278,105,2016-07
ipp-non-chp,59275,CF SBC Master Tenant One LLC,59536,CISO,California Independent System Operator,OP,34.548056,-117.464444,1.5,2015-01
ipp-non-chp,59275,CF SBC Master Tenant One LLC,59537,CISO,California Independent System Operator,OP,34.548056,-117.464444,1.5,2015-01
ipp-non-chp,59284,"Kona Solar, LLC",59539,CISO,California Independent System Operator,OP,33.896111,-117.283611,1.5,2015-03
ipp-non-chp,59284,"Kona Solar, LLC",59540,CISO,California Independent System Operator,OP,34.100278,-117.552778,1.8,2015-04
ipp-non-chp,59284,"Kona Solar, LLC",59541,CISO,California Independent System Operator,OP,34.039722,-117.606667,1.5,2015-03
ipp-non-chp,59290,Solvida Energy Group/Blue Oak Energy,59550,CISO,California Independent System Operator,OP,38.521111,-121.993889,2,2014-12
ipp-non-chp,59298,"Vega Solar, LLC",59555,CISO,California Independent System Operator,OP,36.925833,-120.82,20,2015-03
ipp-non-chp,59345,"Colton Solar One, LLC",59597,CISO,California Independent System Operator,OP,34.093333,-117.319444,2.5,2015-06
ipp-non-chp,59346,"Colton Solar Two, LLC",59598,CISO,California Independent System Operator,OP,34.042222,-117.361667,1,2015-04
ipp-non-chp,60184,"Tropico, LLC",59599,CISO,California Independent System Operator,OP,35.831944,-119.056111,14,2016-09
ipp-non-chp,60185,"Nicolis, LLC",59600,CISO,California Independent System Operator,OP,35.835833,-119.056111,20,2016-09
ipp-non-chp,58468,Dominion Renewable Energy,59607,CISO,California Independent System Operator,OP,35.115278,-119.317778,20,2015-12
ipp-non-chp,59353,"AP North Lake I, LP",59610,CISO,California Independent System Operator,OP,33.74,-117.010556,20,2015-08
ipp-non-chp,59381,EE Kettleman California LLC,59633,CISO,California Independent System Operator,OP,36.050833,-119.9475,20,2015-07
ipp-non-chp,59393,"Coronal Lost Hills, LLC",59638,CISO,California Independent System Operator,OP,35.726667,-119.905833,20,2015-05
ipp-non-chp,11208,Los Angeles Department of Water & Power,59651,LDWP,Los Angeles Department of Water and Power,OP,34.071389,-118.196111,1.7,2015-02
ipp-non-chp,11208,Los Angeles Department of Water & Power,59652,LDWP,Los Angeles Department of Water and Power,OP,34.236667,-118.565833,1.2,2014-09
ipp-non-chp,58468,Dominion Renewable Energy,59657,IID,Imperial Irrigation District,OP,33.252222,-115.4975,20,2015-06
ipp-non-chp,59457,"Sun Harvest Solar, LLC",59687,CISO,California Independent System Operator,OP,37.05758,-120.653625,1.5,2015-05
ipp-non-chp,58468,Dominion Renewable Energy,59703,CISO,California Independent System Operator,OP,38.129759,-122.568158,1,2016-05
ipp-non-chp,59491,Seville Solar One LLC,59722,IID,Imperial Irrigation District,OP,33.1125,-116.0139,20,2015-12
ipp-non-chp,59492,Seville Solar Two LLC,59723,IID,Imperial Irrigation District,OP,33.1101,-116.0059,30,2015-12
ipp-non-chp,58661,"Sustainable Power Group, LLC",59730,CISO,California Independent System Operator,OP,34.613602,-117.93439,2,2016-01
ipp-non-chp,58661,"Sustainable Power Group, LLC",59737,CISO,California Independent System Operator,OP,36.552186,-120.352481,9,2017-09
ipp-non-chp,58661,"Sustainable Power Group, LLC",59738,CISO,California Independent System Operator,OP,36.723806,-120.432139,5,2015-12
